<?xml version='1.0' encoding='UTF-8'?><kml xmlns='http://earth.google.com/kml/2.0'>
		<Document>
		  <name>Monuments aux morts MémorialGenWeb pour Google_maps</name>
		  <open>0</open>
	<Folder><name>01 Ain</name><open>0</open>
					<Placemark id='insee01004'>
					<name>Ambérieu-en-Bugey</name>
					<address>Monument aux Morts<br />01-Ambérieu-en-Bugey (Ain)</address>
					<styleUrl>#geocode</styleUrl><Style id='failed01004'><IconStyle><scale>0.8</scale></IconStyle><LabelStyle><scale>0.8</scale></LabelStyle></Style>
					<MultiGeometry><altitudeMode>absolute</altitudeMode>
						<Point><coordinates> 5.357631199929878,45.95923575705949</coordinates></Point>
					</MultiGeometry>
					</Placemark>
					<Placemark id='insee01007'>
					<name>Ambronay</name>
					<address>Monument aux Morts<br />01-Ambronay (Ain)</address>
					<styleUrl>#geocode</styleUrl><Style id='failed01007'><IconStyle><scale>0.8</scale></IconStyle><LabelStyle><scale>0.8</scale></LabelStyle></Style>
					<MultiGeometry><altitudeMode>absolute</altitudeMode>
						<Point><coordinates> 5.361090416242593,46.00759673698077</coordinates></Point>
					</MultiGeometry>
					</Placemark>
					<Placemark id='insee01009'>
					<name>Andert-et-Condon</name>
					<address>Monument aux Morts<br />01-Andert-et-Condon (Ain)</address>
					<styleUrl>#geocode</styleUrl><Style id='failed01009'><IconStyle><scale>0.8</scale></IconStyle><LabelStyle><scale>0.8</scale></LabelStyle></Style>
					<MultiGeometry><altitudeMode>absolute</altitudeMode>
						<Point><coordinates> 5.6550303390975305,45.794352935190076</coordinates></Point>
					</MultiGeometry>
					</Placemark>
					<Placemark id='insee01010'>
					<name>Anglefort</name>
					<address>Monument aux Morts<br />01-Anglefort (Ain)</address>
					<styleUrl>#geocode</styleUrl><Style id='failed01010'><IconStyle><scale>0.8</scale></IconStyle><LabelStyle><scale>0.8</scale></LabelStyle></Style>
					<MultiGeometry><altitudeMode>absolute</altitudeMode>
						<Point><coordinates> 5.809041053350976,45.913809328399644</coordinates></Point>
					</MultiGeometry>
					</Placemark>
					<Placemark id='insee01011'>
					<name>Apremont</name>
					<address>Monument aux Morts<br />01-Apremont (Ain)</address>
					<styleUrl>#geocode</styleUrl><Style id='failed01011'><IconStyle><scale>0.8</scale></IconStyle><LabelStyle><scale>0.8</scale></LabelStyle></Style>
					<MultiGeometry><altitudeMode>absolute</altitudeMode>
						<Point><coordinates> 5.657992956824454,46.207768633896</coordinates></Point>
					</MultiGeometry>
					</Placemark>
					<Placemark id='insee01012'>
					<name>Aranc</name>
					<address>Monument aux Morts<br />01-Aranc (Ain)</address>
					<styleUrl>#geocode</styleUrl><Style id='failed01012'><IconStyle><scale>0.8</scale></IconStyle><LabelStyle><scale>0.8</scale></LabelStyle></Style>
					<MultiGeometry><altitudeMode>absolute</altitudeMode>
						<Point><coordinates> 5.508502990143982,46.00316263969112</coordinates></Point>
					</MultiGeometry>
					</Placemark>
					<Placemark id='insee01014'>
					<name>Arbent</name>
					<address>Monument aux Morts<br />01-Arbent (Ain)</address>
					<styleUrl>#geocode</styleUrl><Style id='failed01014'><IconStyle><scale>0.8</scale></IconStyle><LabelStyle><scale>0.8</scale></LabelStyle></Style>
					<MultiGeometry><altitudeMode>absolute</altitudeMode>
						<Point><coordinates> 5.681272990022139,46.295663081182205</coordinates></Point>
					</MultiGeometry>
					</Placemark>
					<Placemark id='insee01021'>
					<name>Ars-sur-Formans</name>
					<address>Monument aux Morts<br />01-Ars-sur-Formans (Ain)</address>
					<styleUrl>#geocode</styleUrl><Style id='failed01021'><IconStyle><scale>0.8</scale></IconStyle><LabelStyle><scale>0.8</scale></LabelStyle></Style>
					<MultiGeometry><altitudeMode>absolute</altitudeMode>
						<Point><coordinates> 4.821239999873373,45.99349925243974</coordinates></Point>
					</MultiGeometry>
					</Placemark>
					<Placemark id='insee01023'>
					<name>Asnières-sur-Saône</name>
					<address>Monument aux Morts<br />01-Asnières-sur-Saône (Ain)</address>
					<styleUrl>#geocode</styleUrl><Style id='failed01023'><IconStyle><scale>0.8</scale></IconStyle><LabelStyle><scale>0.8</scale></LabelStyle></Style>
					<MultiGeometry><altitudeMode>absolute</altitudeMode>
						<Point><coordinates> 4.883221635130626,46.38304269475508</coordinates></Point>
					</MultiGeometry>
					</Placemark>
					<Placemark id='insee01024'>
					<name>Attignat</name>
					<address>Monument aux Morts<br />01-Attignat (Ain)</address>
					<styleUrl>#geocode</styleUrl><Style id='failed01024'><IconStyle><scale>0.8</scale></IconStyle><LabelStyle><scale>0.8</scale></LabelStyle></Style>
					<MultiGeometry><altitudeMode>absolute</altitudeMode>
						<Point><coordinates> 5.1583228863225505,46.28932067673939</coordinates></Point>
					</MultiGeometry>
					</Placemark>
					<Placemark id='insee01026'>
					<name>Bâgé-le-Châtel</name>
					<address>Monument aux Morts<br />01-Bâgé-le-Châtel (Ain)</address>
					<styleUrl>#geocode</styleUrl><Style id='failed01026'><IconStyle><scale>0.8</scale></IconStyle><LabelStyle><scale>0.8</scale></LabelStyle></Style>
					<MultiGeometry><altitudeMode>absolute</altitudeMode>
						<Point><coordinates> 4.931432887853056,46.30694158039887</coordinates></Point>
					</MultiGeometry>
					</Placemark>
					<Placemark id='insee01027'>
					<name>Balan</name>
					<address>Monument aux Morts<br />01-Balan (Ain)</address>
					<styleUrl>#geocode</styleUrl><Style id='failed01027'><IconStyle><scale>0.8</scale></IconStyle><LabelStyle><scale>0.8</scale></LabelStyle></Style>
					<MultiGeometry><altitudeMode>absolute</altitudeMode>
						<Point><coordinates> 5.097740999889203,45.83347696750646</coordinates></Point>
					</MultiGeometry>
					</Placemark>
					<Placemark id='insee01029'>
					<name>Beaupont</name>
					<address>Monument aux Morts<br />01-Beaupont (Ain)</address>
					<styleUrl>#geocode</styleUrl><Style id='failed01029'><IconStyle><scale>0.8</scale></IconStyle><LabelStyle><scale>0.8</scale></LabelStyle></Style>
					<MultiGeometry><altitudeMode>absolute</altitudeMode>
						<Point><coordinates> 5.264466570227777,46.41122808554914</coordinates></Point>
					</MultiGeometry>
					</Placemark>
					<Placemark id='insee01056'>
					<name>Boyeux-Saint-Jérôme</name>
					<address>Monument aux Morts de Poncieux<br />01-Boyeux-Saint-Jérôme (Ain)</address>
					<styleUrl>#geocode</styleUrl><Style id='failed01056'><IconStyle><scale>0.8</scale></IconStyle><LabelStyle><scale>0.8</scale></LabelStyle></Style>
					<MultiGeometry><altitudeMode>absolute</altitudeMode>
						<Point><coordinates> 5.454626442332976,46.04899370668739</coordinates></Point>
					</MultiGeometry>
					</Placemark>
					<Placemark id='insee01075'>
					<name>Chaleins</name>
					<address>Monument aux Morts<br />01-Chaleins (Ain)</address>
					<styleUrl>#geocode</styleUrl><Style id='failed01075'><IconStyle><scale>0.8</scale></IconStyle><LabelStyle><scale>0.8</scale></LabelStyle></Style>
					<MultiGeometry><altitudeMode>absolute</altitudeMode>
						<Point><coordinates> 4.8041984,46.0312582</coordinates></Point>
					</MultiGeometry>
					</Placemark>
					<Placemark id='insee01244'>
					<name>Meximieux</name>
					<address>Monument aux Morts (guerre de 1870-1871) du canton de Meximieux<br />01-Meximieux (Ain)</address>
					<styleUrl>#geocode</styleUrl><Style id='failed01244'><IconStyle><scale>0.8</scale></IconStyle><LabelStyle><scale>0.8</scale></LabelStyle></Style>
					<MultiGeometry><altitudeMode>absolute</altitudeMode>
						<Point><coordinates> 5.187700741747553,45.9045802513061</coordinates></Point>
					</MultiGeometry>
					</Placemark>
					<Placemark id='insee01249'>
					<name>Miribel</name>
					<address>Monument aux Morts des Echets<br />01-Miribel (Ain)</address>
					<styleUrl>#geocode</styleUrl><Style id='failed01249'><IconStyle><scale>0.8</scale></IconStyle><LabelStyle><scale>0.8</scale></LabelStyle></Style>
					<MultiGeometry><altitudeMode>absolute</altitudeMode>
						<Point><coordinates> 4.9098118,45.8696594</coordinates></Point>
					</MultiGeometry>
					</Placemark>
					<Placemark id='insee01275'>
					<name>Neyron</name>
					<address>Monument aux Morts du cimetière<br />01-Neyron (Ain)</address>
					<styleUrl>#geocode</styleUrl><Style id='failed01275'><IconStyle><scale>0.8</scale></IconStyle><LabelStyle><scale>0.8</scale></LabelStyle></Style>
					<MultiGeometry><altitudeMode>absolute</altitudeMode>
						<Point><coordinates> 4.931296271162498,45.82068662721657</coordinates></Point>
					</MultiGeometry>
					</Placemark>
					<Placemark id='insee01339'>
					<name>Saint-Bernard</name>
					<address>Monument aux Morts<br />01-Saint-Bernard (Ain)</address>
					<styleUrl>#geocode</styleUrl><Style id='failed01339'><IconStyle><scale>0.8</scale></IconStyle><LabelStyle><scale>0.8</scale></LabelStyle></Style>
					<MultiGeometry><altitudeMode>absolute</altitudeMode>
						<Point><coordinates> 4.7353549,45.9476146</coordinates></Point>
					</MultiGeometry>
					</Placemark>
					<Placemark id='insee01379'>
					<name>Saint-Maurice-de-Rémens</name>
					<address>Monument aux Morts du cimetière<br />01-Saint-Maurice-de-Rémens (Ain)</address>
					<styleUrl>#geocode</styleUrl><Style id='failed01379'><IconStyle><scale>0.8</scale></IconStyle><LabelStyle><scale>0.8</scale></LabelStyle></Style>
					<MultiGeometry><altitudeMode>absolute</altitudeMode>
						<Point><coordinates> 5.282344028677443,45.95648262472557</coordinates></Point>
					</MultiGeometry>
					</Placemark>
					<Placemark id='insee01457'>
					<name>Vonnas</name>
					<address>Monument aux Morts<br />01-Vonnas (Ain)</address>
					<styleUrl>#geocode</styleUrl><Style id='failed01457'><IconStyle><scale>0.8</scale></IconStyle><LabelStyle><scale>0.8</scale></LabelStyle></Style>
					<MultiGeometry><altitudeMode>absolute</altitudeMode>
						<Point><coordinates> 4.991951788832922,46.2200002936267</coordinates></Point>
					</MultiGeometry>
					</Placemark>
					</Folder>
					<Folder><name>02 Aisne</name><open>0</open>
					<Placemark id='insee02056'>
					<name>Beaumont-en-Beine</name>
					<address>Monument aux Morts<br />02-Beaumont-en-Beine (Aisne)</address>
					<styleUrl>#geocode</styleUrl><Style id='failed02056'><IconStyle><scale>0.8</scale></IconStyle><LabelStyle><scale>0.8</scale></LabelStyle></Style>
					<MultiGeometry><altitudeMode>absolute</altitudeMode>
						<Point><coordinates> 3.1298338128782617,49.69126801182628</coordinates></Point>
					</MultiGeometry>
					</Placemark>
					<Placemark id='insee02165'>
					<name>Charmes</name>
					<address>Monument aux Morts<br />02-Charmes (Aisne)</address>
					<styleUrl>#geocode</styleUrl><Style id='failed02165'><IconStyle><scale>0.8</scale></IconStyle><LabelStyle><scale>0.8</scale></LabelStyle></Style>
					<MultiGeometry><altitudeMode>absolute</altitudeMode>
						<Point><coordinates> 3.377289458752755,49.655227082313814</coordinates></Point>
					</MultiGeometry>
					</Placemark>
					<Placemark id='insee02246'>
					<name>Cugny</name>
					<address>Monument aux Morts<br />02-Cugny (Aisne)</address>
					<styleUrl>#geocode</styleUrl><Style id='failed02246'><IconStyle><scale>0.8</scale></IconStyle><LabelStyle><scale>0.8</scale></LabelStyle></Style>
					<MultiGeometry><altitudeMode>absolute</altitudeMode>
						<Point><coordinates> 3.154775,49.707423</coordinates></Point>
					</MultiGeometry>
					</Placemark>
					</Folder>
					<Folder><name>03 Allier</name><open>0</open>
					<Placemark id='insee03203'>
					<name>Paray-le-Frésil</name>
					<address>Monument aux Morts<br />03-Paray-le-Frésil (Allier)</address>
					<styleUrl>#geocode</styleUrl><Style id='failed03203'><IconStyle><scale>0.8</scale></IconStyle><LabelStyle><scale>0.8</scale></LabelStyle></Style>
					<MultiGeometry><altitudeMode>absolute</altitudeMode>
						<Point><coordinates> 3.611562530059892,46.654707097870364</coordinates></Point>
					</MultiGeometry>
					</Placemark>
					</Folder>
					<Folder><name>04 Alpes-de-Haute-Provence</name><open>0</open>
					<Placemark id='insee04142'>
					<name>Oppedette</name>
					<address>Monument aux Morts<br />04-Oppedette (Alpes-de-Haute-Provence)</address>
					<styleUrl>#geocode</styleUrl><Style id='failed04142'><IconStyle><scale>0.8</scale></IconStyle><LabelStyle><scale>0.8</scale></LabelStyle></Style>
					<MultiGeometry><altitudeMode>absolute</altitudeMode>
						<Point><coordinates> 5.590468,43.934102</coordinates></Point>
					</MultiGeometry>
					</Placemark>
					</Folder>
					<Folder><name>05 Hautes-Alpes</name><open>0</open>
					<Placemark id='insee05061'>
					<name>Gap</name>
					<address>Monument aux Morts<br />05-Gap (Hautes-Alpes)</address>
					<styleUrl>#geocode</styleUrl><Style id='failed05061'><IconStyle><scale>0.8</scale></IconStyle><LabelStyle><scale>0.8</scale></LabelStyle></Style>
					<MultiGeometry><altitudeMode>absolute</altitudeMode>
						<Point><coordinates> 6.076460457065,44.5577846195642</coordinates></Point>
					</MultiGeometry>
					</Placemark>
					</Folder>
					<Folder><name>06 Alpes-Maritimes</name><open>0</open>
					<Placemark id='insee06023'>
					<name>Breil-sur-Roya</name>
					<address>Monument aux Morts<br />06-Breil-sur-Roya (Alpes-Maritimes)</address>
					<styleUrl>#geocode</styleUrl><Style id='failed06023'><IconStyle><scale>0.8</scale></IconStyle><LabelStyle><scale>0.8</scale></LabelStyle></Style>
					<MultiGeometry><altitudeMode>absolute</altitudeMode>
						<Point><coordinates> 7.5311656827623015,43.89048306881511</coordinates></Point>
					</MultiGeometry>
					</Placemark>
					</Folder>
					<Folder><name>07 Ardèche</name><open>0</open>
					<Placemark id='insee07001'>
					<name>Accons</name>
					<address>Monument aux Morts<br />07-Accons (Ardèche)</address>
					<styleUrl>#geocode</styleUrl><Style id='failed07001'><IconStyle><scale>0.8</scale></IconStyle><LabelStyle><scale>0.8</scale></LabelStyle></Style>
					<MultiGeometry><altitudeMode>absolute</altitudeMode>
						<Point><coordinates> 4.3866977848890425,44.88655695331397</coordinates></Point>
					</MultiGeometry>
					</Placemark>
					<Placemark id='insee07002'>
					<name>Ailhon</name>
					<address>Monument aux Morts<br />07-Ailhon (Ardèche)</address>
					<styleUrl>#geocode</styleUrl><Style id='failed07002'><IconStyle><scale>0.8</scale></IconStyle><LabelStyle><scale>0.8</scale></LabelStyle></Style>
					<MultiGeometry><altitudeMode>absolute</altitudeMode>
						<Point><coordinates> 4.341937209247218,44.59798465430355</coordinates></Point>
					</MultiGeometry>
					</Placemark>
					<Placemark id='insee07003'>
					<name>Aizac</name>
					<address>Monument aux Morts<br />07-Aizac (Ardèche)</address>
					<styleUrl>#geocode</styleUrl><Style id='failed07003'><IconStyle><scale>0.8</scale></IconStyle><LabelStyle><scale>0.8</scale></LabelStyle></Style>
					<MultiGeometry><altitudeMode>absolute</altitudeMode>
						<Point><coordinates> 4.32802123025559,44.714761064556185</coordinates></Point>
					</MultiGeometry>
					</Placemark>
					<Placemark id='insee07004'>
					<name>Ajoux</name>
					<address>Monument aux Morts<br />07-Ajoux (Ardèche)</address>
					<styleUrl>#geocode</styleUrl><Style id='failed07004'><IconStyle><scale>0.8</scale></IconStyle><LabelStyle><scale>0.8</scale></LabelStyle></Style>
					<MultiGeometry><altitudeMode>absolute</altitudeMode>
						<Point><coordinates> 4.487384777933606,44.751932225865886</coordinates></Point>
					</MultiGeometry>
					</Placemark>
					<Placemark id='insee07005'>
					<name>Alba-la-Romaine</name>
					<address>Monument aux Morts<br />07-Alba-la-Romaine (Ardèche)</address>
					<styleUrl>#geocode</styleUrl><Style id='failed07005'><IconStyle><scale>0.8</scale></IconStyle><LabelStyle><scale>0.8</scale></LabelStyle></Style>
					<MultiGeometry><altitudeMode>absolute</altitudeMode>
						<Point><coordinates> 4.600874042083108,44.55184809891024</coordinates></Point>
					</MultiGeometry>
					</Placemark>
					<Placemark id='insee07006'>
					<name>Albon-d'Ardèche</name>
					<address>Monument aux Morts<br />07-Albon-d'Ardèche (Ardèche)</address>
					<styleUrl>#geocode</styleUrl><Style id='failed07006'><IconStyle><scale>0.8</scale></IconStyle><LabelStyle><scale>0.8</scale></LabelStyle></Style>
					<MultiGeometry><altitudeMode>absolute</altitudeMode>
						<Point><coordinates> 4.428734174587852,44.8213417817782</coordinates></Point>
					</MultiGeometry>
					</Placemark>
					<Placemark id='insee07007'>
					<name>Alboussière</name>
					<address>Monument aux Morts<br />07-Alboussière (Ardèche)</address>
					<styleUrl>#geocode</styleUrl><Style id='failed07007'><IconStyle><scale>0.8</scale></IconStyle><LabelStyle><scale>0.8</scale></LabelStyle></Style>
					<MultiGeometry><altitudeMode>absolute</altitudeMode>
						<Point><coordinates> 4.730440283424441,44.94447772580474</coordinates></Point>
					</MultiGeometry>
					</Placemark>
					<Placemark id='insee07008'>
					<name>Alissas</name>
					<address>Monument aux Morts<br />07-Alissas (Ardèche)</address>
					<styleUrl>#geocode</styleUrl><Style id='failed07008'><IconStyle><scale>0.8</scale></IconStyle><LabelStyle><scale>0.8</scale></LabelStyle></Style>
					<MultiGeometry><altitudeMode>absolute</altitudeMode>
						<Point><coordinates> 4.629978779181658,44.71218413391533</coordinates></Point>
					</MultiGeometry>
					</Placemark>
					<Placemark id='insee07009'>
					<name>Andance</name>
					<address>Monument aux Morts et stèle<br />07-Andance (Ardèche)</address>
					<styleUrl>#geocode</styleUrl><Style id='failed07009'><IconStyle><scale>0.8</scale></IconStyle><LabelStyle><scale>0.8</scale></LabelStyle></Style>
					<MultiGeometry><altitudeMode>absolute</altitudeMode>
						<Point><coordinates> 4.798135646174236,45.239647285460016</coordinates></Point>
					</MultiGeometry>
					</Placemark>
					<Placemark id='insee07010'>
					<name>Annonay</name>
					<address>Monument aux Morts<br />07-Annonay (Ardèche)</address>
					<styleUrl>#geocode</styleUrl><Style id='failed07010'><IconStyle><scale>0.8</scale></IconStyle><LabelStyle><scale>0.8</scale></LabelStyle></Style>
					<MultiGeometry><altitudeMode>absolute</altitudeMode>
						<Point><coordinates> 4.659842443396767,45.245509759214805</coordinates></Point>
					</MultiGeometry>
					</Placemark>
					<Placemark id='insee07011'>
					<name>Vallées-d'Antraigues-Asperjoc (commune nouvelle)</name>
					<address>Monument aux Morts [Asperjoc]<br />07-Vallées-d'Antraigues-Asperjoc (commune nouvelle) (Ardèche)</address>
					<styleUrl>#geocode</styleUrl><Style id='failed07011'><IconStyle><scale>0.8</scale></IconStyle><LabelStyle><scale>0.8</scale></LabelStyle></Style>
					<MultiGeometry><altitudeMode>absolute</altitudeMode>
						<Point><coordinates> 4.359170536073784,44.68555021941839</coordinates></Point>
					</MultiGeometry>
					</Placemark>
					<Placemark id='insee07012'>
					<name>Arcens</name>
					<address>Monument aux Morts<br />07-Arcens (Ardèche)</address>
					<styleUrl>#geocode</styleUrl><Style id='failed07012'><IconStyle><scale>0.8</scale></IconStyle><LabelStyle><scale>0.8</scale></LabelStyle></Style>
					<MultiGeometry><altitudeMode>absolute</altitudeMode>
						<Point><coordinates> 4.330033226890499,44.902021859080016</coordinates></Point>
					</MultiGeometry>
					</Placemark>
					<Placemark id='insee07013'>
					<name>Ardoix</name>
					<address>Monument aux Morts<br />07-Ardoix (Ardèche)</address>
					<styleUrl>#geocode</styleUrl><Style id='failed07013'><IconStyle><scale>0.8</scale></IconStyle><LabelStyle><scale>0.8</scale></LabelStyle></Style>
					<MultiGeometry><altitudeMode>absolute</altitudeMode>
						<Point><coordinates> 4.736363268507875,45.186698848321164</coordinates></Point>
					</MultiGeometry>
					</Placemark>
					<Placemark id='insee07014'>
					<name>Arlebosc</name>
					<address>Monument aux Morts<br />07-Arlebosc (Ardèche)</address>
					<styleUrl>#geocode</styleUrl><Style id='failed07014'><IconStyle><scale>0.8</scale></IconStyle><LabelStyle><scale>0.8</scale></LabelStyle></Style>
					<MultiGeometry><altitudeMode>absolute</altitudeMode>
						<Point><coordinates> 4.652169907223759,45.03608839408276</coordinates></Point>
					</MultiGeometry>
					</Placemark>
					<Placemark id='insee07015'>
					<name>Arras-sur-Rhône</name>
					<address>Monument aux Morts<br />07-Arras-sur-Rhône (Ardèche)</address>
					<styleUrl>#geocode</styleUrl><Style id='failed07015'><IconStyle><scale>0.8</scale></IconStyle><LabelStyle><scale>0.8</scale></LabelStyle></Style>
					<MultiGeometry><altitudeMode>absolute</altitudeMode>
						<Point><coordinates> 4.806721676565108,45.14326347165228</coordinates></Point>
					</MultiGeometry>
					</Placemark>
					<Placemark id='insee07017'>
					<name>Les Assions</name>
					<address>Monument aux Morts<br />07-Les Assions (Ardèche)</address>
					<styleUrl>#geocode</styleUrl><Style id='failed07017'><IconStyle><scale>0.8</scale></IconStyle><LabelStyle><scale>0.8</scale></LabelStyle></Style>
					<MultiGeometry><altitudeMode>absolute</altitudeMode>
						<Point><coordinates> 4.173687999835404,44.42117586893835</coordinates></Point>
					</MultiGeometry>
					</Placemark>
					<Placemark id='insee07018'>
					<name>Astet</name>
					<address>Monument aux Morts<br />07-Astet (Ardèche)</address>
					<styleUrl>#geocode</styleUrl><Style id='failed07018'><IconStyle><scale>0.8</scale></IconStyle><LabelStyle><scale>0.8</scale></LabelStyle></Style>
					<MultiGeometry><altitudeMode>absolute</altitudeMode>
						<Point><coordinates> 4.060103108633356,44.68371343273229</coordinates></Point>
					</MultiGeometry>
					</Placemark>
					<Placemark id='insee07019'>
					<name>Aubenas</name>
					<address>Monument aux Morts du cimetière de Pont-d'Aubenas<br />07-Aubenas (Ardèche)</address>
					<styleUrl>#geocode</styleUrl><Style id='failed07019'><IconStyle><scale>0.8</scale></IconStyle><LabelStyle><scale>0.8</scale></LabelStyle></Style>
					<MultiGeometry><altitudeMode>absolute</altitudeMode>
						<Point><coordinates> 4.391916970818153,44.6229175271444</coordinates></Point>
					</MultiGeometry>
					</Placemark>
					<Placemark id='insee07022'>
					<name>Baix</name>
					<address>Monument aux Morts 1914-1918<br />07-Baix (Ardèche)</address>
					<styleUrl>#geocode</styleUrl><Style id='failed07022'><IconStyle><scale>0.8</scale></IconStyle><LabelStyle><scale>0.8</scale></LabelStyle></Style>
					<MultiGeometry><altitudeMode>absolute</altitudeMode>
						<Point><coordinates> 4.762110527364688,44.71409821330717</coordinates></Point>
					</MultiGeometry>
					</Placemark>
					<Placemark id='insee07023'>
					<name>Balazuc</name>
					<address>Monument aux Morts<br />07-Balazuc (Ardèche)</address>
					<styleUrl>#geocode</styleUrl><Style id='failed07023'><IconStyle><scale>0.8</scale></IconStyle><LabelStyle><scale>0.8</scale></LabelStyle></Style>
					<MultiGeometry><altitudeMode>absolute</altitudeMode>
						<Point><coordinates> 4.372970324656828,44.50868468851062</coordinates></Point>
					</MultiGeometry>
					</Placemark>
					<Placemark id='insee07024'>
					<name>Banne</name>
					<address>Monument aux Morts<br />07-Banne (Ardèche)</address>
					<styleUrl>#geocode</styleUrl><Style id='failed07024'><IconStyle><scale>0.8</scale></IconStyle><LabelStyle><scale>0.8</scale></LabelStyle></Style>
					<MultiGeometry><altitudeMode>absolute</altitudeMode>
						<Point><coordinates> 4.156061717968491,44.36461660528433</coordinates></Point>
					</MultiGeometry>
					</Placemark>
					<Placemark id='insee07025'>
					<name>Barnas</name>
					<address>Monument aux Morts<br />07-Barnas (Ardèche)</address>
					<styleUrl>#geocode</styleUrl><Style id='failed07025'><IconStyle><scale>0.8</scale></IconStyle><LabelStyle><scale>0.8</scale></LabelStyle></Style>
					<MultiGeometry><altitudeMode>absolute</altitudeMode>
						<Point><coordinates> 4.169347629325422,44.66888541325733</coordinates></Point>
					</MultiGeometry>
					</Placemark>
					<Placemark id='insee07026'>
					<name>Le Béage</name>
					<address>Monument aux Morts<br />07-Le Béage (Ardèche)</address>
					<styleUrl>#geocode</styleUrl><Style id='failed07026'><IconStyle><scale>0.8</scale></IconStyle><LabelStyle><scale>0.8</scale></LabelStyle></Style>
					<MultiGeometry><altitudeMode>absolute</altitudeMode>
						<Point><coordinates> 4.117141609643864,44.84908902137622</coordinates></Point>
					</MultiGeometry>
					</Placemark>
					<Placemark id='insee07027'>
					<name>Beauchastel</name>
					<address>Monument aux Morts<br />07-Beauchastel (Ardèche)</address>
					<styleUrl>#geocode</styleUrl><Style id='failed07027'><IconStyle><scale>0.8</scale></IconStyle><LabelStyle><scale>0.8</scale></LabelStyle></Style>
					<MultiGeometry><altitudeMode>absolute</altitudeMode>
						<Point><coordinates> 4.800541097091397,44.82633635527394</coordinates></Point>
					</MultiGeometry>
					</Placemark>
					<Placemark id='insee07028'>
					<name>Beaulieu</name>
					<address>Monument aux Morts<br />07-Beaulieu (Ardèche)</address>
					<styleUrl>#geocode</styleUrl><Style id='failed07028'><IconStyle><scale>0.8</scale></IconStyle><LabelStyle><scale>0.8</scale></LabelStyle></Style>
					<MultiGeometry><altitudeMode>absolute</altitudeMode>
						<Point><coordinates> 4.2336519408449576,44.360647058917415</coordinates></Point>
					</MultiGeometry>
					</Placemark>
					<Placemark id='insee07029'>
					<name>Beaumont</name>
					<address>Monument aux Morts<br />07-Beaumont (Ardèche)</address>
					<styleUrl>#geocode</styleUrl><Style id='failed07029'><IconStyle><scale>0.8</scale></IconStyle><LabelStyle><scale>0.8</scale></LabelStyle></Style>
					<MultiGeometry><altitudeMode>absolute</altitudeMode>
						<Point><coordinates> 4.167403587567034,44.53799673256028</coordinates></Point>
					</MultiGeometry>
					</Placemark>
					<Placemark id='insee07031'>
					<name>Berrias-et-Casteljau</name>
					<address>Monument aux Morts de Berrias<br />07-Berrias-et-Casteljau (Ardèche)</address>
					<styleUrl>#geocode</styleUrl><Style id='failed07031'><IconStyle><scale>0.8</scale></IconStyle><LabelStyle><scale>0.8</scale></LabelStyle></Style>
					<MultiGeometry><altitudeMode>absolute</altitudeMode>
						<Point><coordinates> 4.201830964213242,44.37354891155595</coordinates></Point>
					</MultiGeometry>
					</Placemark>
					<Placemark id='insee07031'>
					<name>Berrias</name>
					<address>Monument aux Morts de Berrias<br />07-Berrias (Ardèche)</address>
					<styleUrl>#geocode</styleUrl><Style id='failed07031'><IconStyle><scale>0.8</scale></IconStyle><LabelStyle><scale>0.8</scale></LabelStyle></Style>
					<MultiGeometry><altitudeMode>absolute</altitudeMode>
						<Point><coordinates> 4.201830964213242,44.37354891155595</coordinates></Point>
					</MultiGeometry>
					</Placemark>
					<Placemark id='insee07032'>
					<name>Berzème</name>
					<address>Monument aux Morts 1914-1918<br />07-Berzème (Ardèche)</address>
					<styleUrl>#geocode</styleUrl><Style id='failed07032'><IconStyle><scale>0.8</scale></IconStyle><LabelStyle><scale>0.8</scale></LabelStyle></Style>
					<MultiGeometry><altitudeMode>absolute</altitudeMode>
						<Point><coordinates> 4.565302447934672,44.651850604855</coordinates></Point>
					</MultiGeometry>
					</Placemark>
					<Placemark id='insee07033'>
					<name>Bessas</name>
					<address>Monument aux Morts<br />07-Bessas (Ardèche)</address>
					<styleUrl>#geocode</styleUrl><Style id='failed07033'><IconStyle><scale>0.8</scale></IconStyle><LabelStyle><scale>0.8</scale></LabelStyle></Style>
					<MultiGeometry><altitudeMode>absolute</altitudeMode>
						<Point><coordinates> 4.302842322664702,44.34386192160013</coordinates></Point>
					</MultiGeometry>
					</Placemark>
					<Placemark id='insee07035'>
					<name>Boffres</name>
					<address>Monument aux Morts<br />07-Boffres (Ardèche)</address>
					<styleUrl>#geocode</styleUrl><Style id='failed07035'><IconStyle><scale>0.8</scale></IconStyle><LabelStyle><scale>0.8</scale></LabelStyle></Style>
					<MultiGeometry><altitudeMode>absolute</altitudeMode>
						<Point><coordinates> 4.699723801722798,44.91878375220378</coordinates></Point>
					</MultiGeometry>
					</Placemark>
					<Placemark id='insee07036'>
					<name>Bogy</name>
					<address>Monument aux Morts<br />07-Bogy (Ardèche)</address>
					<styleUrl>#geocode</styleUrl><Style id='failed07036'><IconStyle><scale>0.8</scale></IconStyle><LabelStyle><scale>0.8</scale></LabelStyle></Style>
					<MultiGeometry><altitudeMode>absolute</altitudeMode>
						<Point><coordinates> 4.7600552147112785,45.28272830611145</coordinates></Point>
					</MultiGeometry>
					</Placemark>
					<Placemark id='insee07039'>
					<name>Bozas</name>
					<address>Monument aux Morts<br />07-Bozas (Ardèche)</address>
					<styleUrl>#geocode</styleUrl><Style id='failed07039'><IconStyle><scale>0.8</scale></IconStyle><LabelStyle><scale>0.8</scale></LabelStyle></Style>
					<MultiGeometry><altitudeMode>absolute</altitudeMode>
						<Point><coordinates> 4.650676356130207,45.05581024452323</coordinates></Point>
					</MultiGeometry>
					</Placemark>
					<Placemark id='insee07041'>
					<name>Boulieu-lès-Annonay</name>
					<address>Monument aux Morts<br />07-Boulieu-lès-Annonay (Ardèche)</address>
					<styleUrl>#geocode</styleUrl><Style id='failed07041'><IconStyle><scale>0.8</scale></IconStyle><LabelStyle><scale>0.8</scale></LabelStyle></Style>
					<MultiGeometry><altitudeMode>absolute</altitudeMode>
						<Point><coordinates> 4.669044979882178,45.271377504175405</coordinates></Point>
					</MultiGeometry>
					</Placemark>
					<Placemark id='insee07042'>
					<name>Bourg-Saint-Andéol</name>
					<address>Monument aux Morts<br />07-Bourg-Saint-Andéol (Ardèche)</address>
					<styleUrl>#geocode</styleUrl><Style id='failed07042'><IconStyle><scale>0.8</scale></IconStyle><LabelStyle><scale>0.8</scale></LabelStyle></Style>
					<MultiGeometry><altitudeMode>absolute</altitudeMode>
						<Point><coordinates> 4.644750102536447,44.36860356417149</coordinates></Point>
					</MultiGeometry>
					</Placemark>
					<Placemark id='insee07044'>
					<name>Brossainc</name>
					<address>Monument aux Morts<br />07-Brossainc (Ardèche)</address>
					<styleUrl>#geocode</styleUrl><Style id='failed07044'><IconStyle><scale>0.8</scale></IconStyle><LabelStyle><scale>0.8</scale></LabelStyle></Style>
					<MultiGeometry><altitudeMode>absolute</altitudeMode>
						<Point><coordinates> 4.679181208888423,45.33052849178798</coordinates></Point>
					</MultiGeometry>
					</Placemark>
					<Placemark id='insee07045'>
					<name>Burzet</name>
					<address>Monument aux Morts<br />07-Burzet (Ardèche)</address>
					<styleUrl>#geocode</styleUrl><Style id='failed07045'><IconStyle><scale>0.8</scale></IconStyle><LabelStyle><scale>0.8</scale></LabelStyle></Style>
					<MultiGeometry><altitudeMode>absolute</altitudeMode>
						<Point><coordinates> 4.243017423928854,44.74040920947675</coordinates></Point>
					</MultiGeometry>
					</Placemark>
					<Placemark id='insee07048'>
					<name>Chalencon</name>
					<address>Monument aux Morts<br />07-Chalencon (Ardèche)</address>
					<styleUrl>#geocode</styleUrl><Style id='failed07048'><IconStyle><scale>0.8</scale></IconStyle><LabelStyle><scale>0.8</scale></LabelStyle></Style>
					<MultiGeometry><altitudeMode>absolute</altitudeMode>
						<Point><coordinates> 4.5769277873941325,44.88003265550607</coordinates></Point>
					</MultiGeometry>
					</Placemark>
					<Placemark id='insee07050'>
					<name>Chambonas</name>
					<address>Monument aux Morts<br />07-Chambonas (Ardèche)</address>
					<styleUrl>#geocode</styleUrl><Style id='failed07050'><IconStyle><scale>0.8</scale></IconStyle><LabelStyle><scale>0.8</scale></LabelStyle></Style>
					<MultiGeometry><altitudeMode>absolute</altitudeMode>
						<Point><coordinates> 4.129127363695869,44.41686223631971</coordinates></Point>
					</MultiGeometry>
					</Placemark>
					<Placemark id='insee07051'>
					<name>Champagne</name>
					<address>Monument aux Morts<br />07-Champagne (Ardèche)</address>
					<styleUrl>#geocode</styleUrl><Style id='failed07051'><IconStyle><scale>0.8</scale></IconStyle><LabelStyle><scale>0.8</scale></LabelStyle></Style>
					<MultiGeometry><altitudeMode>absolute</altitudeMode>
						<Point><coordinates> 4.799906490340274,45.27102996507615</coordinates></Point>
					</MultiGeometry>
					</Placemark>
					<Placemark id='insee07052'>
					<name>Champis</name>
					<address>Monument aux Morts<br />07-Champis (Ardèche)</address>
					<styleUrl>#geocode</styleUrl><Style id='failed07052'><IconStyle><scale>0.8</scale></IconStyle><LabelStyle><scale>0.8</scale></LabelStyle></Style>
					<MultiGeometry><altitudeMode>absolute</altitudeMode>
						<Point><coordinates> 4.7478936699623135,44.960672904156624</coordinates></Point>
					</MultiGeometry>
					</Placemark>
					<Placemark id='insee07053'>
					<name>Chandolas</name>
					<address>Monument aux Morts<br />07-Chandolas (Ardèche)</address>
					<styleUrl>#geocode</styleUrl><Style id='failed07053'><IconStyle><scale>0.8</scale></IconStyle><LabelStyle><scale>0.8</scale></LabelStyle></Style>
					<MultiGeometry><altitudeMode>absolute</altitudeMode>
						<Point><coordinates> 4.253461856085297,44.403369201393886</coordinates></Point>
					</MultiGeometry>
					</Placemark>
					<Placemark id='insee07054'>
					<name>Chanéac</name>
					<address>Monument aux Morts<br />07-Chanéac (Ardèche)</address>
					<styleUrl>#geocode</styleUrl><Style id='failed07054'><IconStyle><scale>0.8</scale></IconStyle><LabelStyle><scale>0.8</scale></LabelStyle></Style>
					<MultiGeometry><altitudeMode>absolute</altitudeMode>
						<Point><coordinates> 4.320126670453782,44.933252618309794</coordinates></Point>
					</MultiGeometry>
					</Placemark>
					<Placemark id='insee07055'>
					<name>Charmes-sur-Rhône</name>
					<address>Monument aux Morts<br />07-Charmes-sur-Rhône (Ardèche)</address>
					<styleUrl>#geocode</styleUrl><Style id='failed07055'><IconStyle><scale>0.8</scale></IconStyle><LabelStyle><scale>0.8</scale></LabelStyle></Style>
					<MultiGeometry><altitudeMode>absolute</altitudeMode>
						<Point><coordinates> 4.838389558444971,44.86036785658112</coordinates></Point>
					</MultiGeometry>
					</Placemark>
					<Placemark id='insee07056'>
					<name>Charnas</name>
					<address>Monument aux Morts<br />07-Charnas (Ardèche)</address>
					<styleUrl>#geocode</styleUrl><Style id='failed07056'><IconStyle><scale>0.8</scale></IconStyle><LabelStyle><scale>0.8</scale></LabelStyle></Style>
					<MultiGeometry><altitudeMode>absolute</altitudeMode>
						<Point><coordinates> 4.742519290360783,45.33542388494901</coordinates></Point>
					</MultiGeometry>
					</Placemark>
					<Placemark id='insee07058'>
					<name>Chassiers</name>
					<address>Monument aux Morts<br />07-Chassiers (Ardèche)</address>
					<styleUrl>#geocode</styleUrl><Style id='failed07058'><IconStyle><scale>0.8</scale></IconStyle><LabelStyle><scale>0.8</scale></LabelStyle></Style>
					<MultiGeometry><altitudeMode>absolute</altitudeMode>
						<Point><coordinates> 4.296034562972517,44.5514923441064</coordinates></Point>
					</MultiGeometry>
					</Placemark>
					<Placemark id='insee07059'>
					<name>Châteaubourg</name>
					<address>Monument aux Morts<br />07-Châteaubourg (Ardèche)</address>
					<styleUrl>#geocode</styleUrl><Style id='failed07059'><IconStyle><scale>0.8</scale></IconStyle><LabelStyle><scale>0.8</scale></LabelStyle></Style>
					<MultiGeometry><altitudeMode>absolute</altitudeMode>
						<Point><coordinates> 4.844843003627422,44.996317409446334</coordinates></Point>
					</MultiGeometry>
					</Placemark>
					<Placemark id='insee07061'>
					<name>Chauzon</name>
					<address>Monument aux Morts<br />07-Chauzon (Ardèche)</address>
					<styleUrl>#geocode</styleUrl><Style id='failed07061'><IconStyle><scale>0.8</scale></IconStyle><LabelStyle><scale>0.8</scale></LabelStyle></Style>
					<MultiGeometry><altitudeMode>absolute</altitudeMode>
						<Point><coordinates> 4.363659835229334,44.48298303557249</coordinates></Point>
					</MultiGeometry>
					</Placemark>
					<Placemark id='insee07062'>
					<name>Chazeaux</name>
					<address>Monument aux Morts<br />07-Chazeaux (Ardèche)</address>
					<styleUrl>#geocode</styleUrl><Style id='failed07062'><IconStyle><scale>0.8</scale></IconStyle><LabelStyle><scale>0.8</scale></LabelStyle></Style>
					<MultiGeometry><altitudeMode>absolute</altitudeMode>
						<Point><coordinates> 4.310427992720444,44.595007105649174</coordinates></Point>
					</MultiGeometry>
					</Placemark>
					<Placemark id='insee07063'>
					<name>Cheminas</name>
					<address>Monument aux Morts<br />07-Cheminas (Ardèche)</address>
					<styleUrl>#geocode</styleUrl><Style id='failed07063'><IconStyle><scale>0.8</scale></IconStyle><LabelStyle><scale>0.8</scale></LabelStyle></Style>
					<MultiGeometry><altitudeMode>absolute</altitudeMode>
						<Point><coordinates> 4.752362899564729,45.124050181027734</coordinates></Point>
					</MultiGeometry>
					</Placemark>
					<Placemark id='insee07064'>
					<name>Le Cheylard</name>
					<address>Monument aux Morts<br />07-Le Cheylard (Ardèche)</address>
					<styleUrl>#geocode</styleUrl><Style id='failed07064'><IconStyle><scale>0.8</scale></IconStyle><LabelStyle><scale>0.8</scale></LabelStyle></Style>
					<MultiGeometry><altitudeMode>absolute</altitudeMode>
						<Point><coordinates> 4.422168898183785,44.906863116996085</coordinates></Point>
					</MultiGeometry>
					</Placemark>
					<Placemark id='insee07065'>
					<name>Chirols</name>
					<address>Monument aux Morts<br />07-Chirols (Ardèche)</address>
					<styleUrl>#geocode</styleUrl><Style id='failed07065'><IconStyle><scale>0.8</scale></IconStyle><LabelStyle><scale>0.8</scale></LabelStyle></Style>
					<MultiGeometry><altitudeMode>absolute</altitudeMode>
						<Point><coordinates> 4.286564195011136,44.685858924973495</coordinates></Point>
					</MultiGeometry>
					</Placemark>
					<Placemark id='insee07066'>
					<name>Chomérac</name>
					<address>Monument aux Morts<br />07-Chomérac (Ardèche)</address>
					<styleUrl>#geocode</styleUrl><Style id='failed07066'><IconStyle><scale>0.8</scale></IconStyle><LabelStyle><scale>0.8</scale></LabelStyle></Style>
					<MultiGeometry><altitudeMode>absolute</altitudeMode>
						<Point><coordinates> 4.660144696607431,44.70763137052138</coordinates></Point>
					</MultiGeometry>
					</Placemark>
					<Placemark id='insee07067'>
					<name>Colombier-le-Cardinal</name>
					<address>Monument aux Morts<br />07-Colombier-le-Cardinal (Ardèche)</address>
					<styleUrl>#geocode</styleUrl><Style id='failed07067'><IconStyle><scale>0.8</scale></IconStyle><LabelStyle><scale>0.8</scale></LabelStyle></Style>
					<MultiGeometry><altitudeMode>absolute</altitudeMode>
						<Point><coordinates> 4.7424980053277475,45.26737198127658</coordinates></Point>
					</MultiGeometry>
					</Placemark>
					<Placemark id='insee07068'>
					<name>Colombier-le-Jeune</name>
					<address>Monument aux Morts<br />07-Colombier-le-Jeune (Ardèche)</address>
					<styleUrl>#geocode</styleUrl><Style id='failed07068'><IconStyle><scale>0.8</scale></IconStyle><LabelStyle><scale>0.8</scale></LabelStyle></Style>
					<MultiGeometry><altitudeMode>absolute</altitudeMode>
						<Point><coordinates> 4.70161961106804,45.0104627826913</coordinates></Point>
					</MultiGeometry>
					</Placemark>
					<Placemark id='insee07069'>
					<name>Colombier-le-Vieux</name>
					<address>Monument aux Morts<br />07-Colombier-le-Vieux (Ardèche)</address>
					<styleUrl>#geocode</styleUrl><Style id='failed07069'><IconStyle><scale>0.8</scale></IconStyle><LabelStyle><scale>0.8</scale></LabelStyle></Style>
					<MultiGeometry><altitudeMode>absolute</altitudeMode>
						<Point><coordinates> 4.694071642966635,45.065605444324376</coordinates></Point>
					</MultiGeometry>
					</Placemark>
					<Placemark id='insee07070'>
					<name>Cornas</name>
					<address>Monument aux Morts<br />07-Cornas (Ardèche)</address>
					<styleUrl>#geocode</styleUrl><Style id='failed07070'><IconStyle><scale>0.8</scale></IconStyle><LabelStyle><scale>0.8</scale></LabelStyle></Style>
					<MultiGeometry><altitudeMode>absolute</altitudeMode>
						<Point><coordinates> 4.847861199397539,44.96535224904157</coordinates></Point>
					</MultiGeometry>
					</Placemark>
					<Placemark id='insee07071'>
					<name>Coucouron</name>
					<address>Monument aux Morts<br />07-Coucouron (Ardèche)</address>
					<styleUrl>#geocode</styleUrl><Style id='failed07071'><IconStyle><scale>0.8</scale></IconStyle><LabelStyle><scale>0.8</scale></LabelStyle></Style>
					<MultiGeometry><altitudeMode>absolute</altitudeMode>
						<Point><coordinates> 3.971186532452179,44.80496227672041</coordinates></Point>
					</MultiGeometry>
					</Placemark>
					<Placemark id='insee07072'>
					<name>Coux</name>
					<address>Monument aux Morts<br />07-Coux (Ardèche)</address>
					<styleUrl>#geocode</styleUrl><Style id='failed07072'><IconStyle><scale>0.8</scale></IconStyle><LabelStyle><scale>0.8</scale></LabelStyle></Style>
					<MultiGeometry><altitudeMode>absolute</altitudeMode>
						<Point><coordinates> 4.6210385667352165,44.733062236011676</coordinates></Point>
					</MultiGeometry>
					</Placemark>
					<Placemark id='insee07075'>
					<name>Cros-de-Géorand</name>
					<address>Monument aux Morts<br />07-Cros-de-Géorand (Ardèche)</address>
					<styleUrl>#geocode</styleUrl><Style id='failed07075'><IconStyle><scale>0.8</scale></IconStyle><LabelStyle><scale>0.8</scale></LabelStyle></Style>
					<MultiGeometry><altitudeMode>absolute</altitudeMode>
						<Point><coordinates> 4.1266524347635185,44.79252858225672</coordinates></Point>
					</MultiGeometry>
					</Placemark>
					<Placemark id='insee07076'>
					<name>Cruas</name>
					<address>Monument aux Morts<br />07-Cruas (Ardèche)</address>
					<styleUrl>#geocode</styleUrl><Style id='failed07076'><IconStyle><scale>0.8</scale></IconStyle><LabelStyle><scale>0.8</scale></LabelStyle></Style>
					<MultiGeometry><altitudeMode>absolute</altitudeMode>
						<Point><coordinates> 4.765374263901876,44.656636675001</coordinates></Point>
					</MultiGeometry>
					</Placemark>
					<Placemark id='insee07077'>
					<name>Darbres</name>
					<address>Monument aux Morts 1914-1919<br />07-Darbres (Ardèche)</address>
					<styleUrl>#geocode</styleUrl><Style id='failed07077'><IconStyle><scale>0.8</scale></IconStyle><LabelStyle><scale>0.8</scale></LabelStyle></Style>
					<MultiGeometry><altitudeMode>absolute</altitudeMode>
						<Point><coordinates> 4.5054914054701936,44.64689019594185</coordinates></Point>
					</MultiGeometry>
					</Placemark>
					<Placemark id='insee07078'>
					<name>Davézieux</name>
					<address>Monument aux Morts<br />07-Davézieux (Ardèche)</address>
					<styleUrl>#geocode</styleUrl><Style id='failed07078'><IconStyle><scale>0.8</scale></IconStyle><LabelStyle><scale>0.8</scale></LabelStyle></Style>
					<MultiGeometry><altitudeMode>absolute</altitudeMode>
						<Point><coordinates> 4.704500300716089,45.25386667029259</coordinates></Point>
					</MultiGeometry>
					</Placemark>
					<Placemark id='insee07079'>
					<name>Désaignes</name>
					<address>Monument aux Morts<br />07-Désaignes (Ardèche)</address>
					<styleUrl>#geocode</styleUrl><Style id='failed07079'><IconStyle><scale>0.8</scale></IconStyle><LabelStyle><scale>0.8</scale></LabelStyle></Style>
					<MultiGeometry><altitudeMode>absolute</altitudeMode>
						<Point><coordinates> 4.517596226045193,44.99524939507369</coordinates></Point>
					</MultiGeometry>
					</Placemark>
					<Placemark id='insee07080'>
					<name>Devesset</name>
					<address>Monument aux Morts<br />07-Devesset (Ardèche)</address>
					<styleUrl>#geocode</styleUrl><Style id='failed07080'><IconStyle><scale>0.8</scale></IconStyle><LabelStyle><scale>0.8</scale></LabelStyle></Style>
					<MultiGeometry><altitudeMode>absolute</altitudeMode>
						<Point><coordinates> 4.389213526457668,45.0658285173422</coordinates></Point>
					</MultiGeometry>
					</Placemark>
					<Placemark id='insee07083'>
					<name>Dunière-sur-Eyrieux</name>
					<address>Monument aux Morts<br />07-Dunière-sur-Eyrieux (Ardèche)</address>
					<styleUrl>#geocode</styleUrl><Style id='failed07083'><IconStyle><scale>0.8</scale></IconStyle><LabelStyle><scale>0.8</scale></LabelStyle></Style>
					<MultiGeometry><altitudeMode>absolute</altitudeMode>
						<Point><coordinates> 4.658869930966858,44.822389441117274</coordinates></Point>
					</MultiGeometry>
					</Placemark>
					<Placemark id='insee07084'>
					<name>Eclassan</name>
					<address>Monument aux Morts<br />07-Eclassan (Ardèche)</address>
					<styleUrl>#geocode</styleUrl><Style id='failed07084'><IconStyle><scale>0.8</scale></IconStyle><LabelStyle><scale>0.8</scale></LabelStyle></Style>
					<MultiGeometry><altitudeMode>absolute</altitudeMode>
						<Point><coordinates> 4.760674143590607,45.15853268823955</coordinates></Point>
					</MultiGeometry>
					</Placemark>
					<Placemark id='insee07085'>
					<name>Empurany</name>
					<address>Monument aux Morts<br />07-Empurany (Ardèche)</address>
					<styleUrl>#geocode</styleUrl><Style id='failed07085'><IconStyle><scale>0.8</scale></IconStyle><LabelStyle><scale>0.8</scale></LabelStyle></Style>
					<MultiGeometry><altitudeMode>absolute</altitudeMode>
						<Point><coordinates> 4.6101279301661755,45.02363738677866</coordinates></Point>
					</MultiGeometry>
					</Placemark>
					<Placemark id='insee07086'>
					<name>Étables</name>
					<address>Monument aux Morts<br />07-Étables (Ardèche)</address>
					<styleUrl>#geocode</styleUrl><Style id='failed07086'><IconStyle><scale>0.8</scale></IconStyle><LabelStyle><scale>0.8</scale></LabelStyle></Style>
					<MultiGeometry><altitudeMode>absolute</altitudeMode>
						<Point><coordinates> 4.726579000047743,45.10143825183136</coordinates></Point>
					</MultiGeometry>
					</Placemark>
					<Placemark id='insee07087'>
					<name>Fabras</name>
					<address>Monument aux Morts<br />07-Fabras (Ardèche)</address>
					<styleUrl>#geocode</styleUrl><Style id='failed07087'><IconStyle><scale>0.8</scale></IconStyle><LabelStyle><scale>0.8</scale></LabelStyle></Style>
					<MultiGeometry><altitudeMode>absolute</altitudeMode>
						<Point><coordinates> 4.2880717815436675,44.65145906296487</coordinates></Point>
					</MultiGeometry>
					</Placemark>
					<Placemark id='insee07088'>
					<name>Faugères</name>
					<address>Monument aux Morts<br />07-Faugères (Ardèche)</address>
					<styleUrl>#geocode</styleUrl><Style id='failed07088'><IconStyle><scale>0.8</scale></IconStyle><LabelStyle><scale>0.8</scale></LabelStyle></Style>
					<MultiGeometry><altitudeMode>absolute</altitudeMode>
						<Point><coordinates> 4.135751785118211,44.475481650700495</coordinates></Point>
					</MultiGeometry>
					</Placemark>
					<Placemark id='insee07089'>
					<name>Félines</name>
					<address>Monument aux Morts<br />07-Félines (Ardèche)</address>
					<styleUrl>#geocode</styleUrl><Style id='failed07089'><IconStyle><scale>0.8</scale></IconStyle><LabelStyle><scale>0.8</scale></LabelStyle></Style>
					<MultiGeometry><altitudeMode>absolute</altitudeMode>
						<Point><coordinates> 4.72853374898709,45.315214100547884</coordinates></Point>
					</MultiGeometry>
					</Placemark>
					<Placemark id='insee07090'>
					<name>Flaviac</name>
					<address>Monument aux Morts<br />07-Flaviac (Ardèche)</address>
					<styleUrl>#geocode</styleUrl><Style id='failed07090'><IconStyle><scale>0.8</scale></IconStyle><LabelStyle><scale>0.8</scale></LabelStyle></Style>
					<MultiGeometry><altitudeMode>absolute</altitudeMode>
						<Point><coordinates> 4.6750772065777575,44.746903014931824</coordinates></Point>
					</MultiGeometry>
					</Placemark>
					<Placemark id='insee07091'>
					<name>Fons</name>
					<address>Monument aux Morts<br />07-Fons (Ardèche)</address>
					<styleUrl>#geocode</styleUrl><Style id='failed07091'><IconStyle><scale>0.8</scale></IconStyle><LabelStyle><scale>0.8</scale></LabelStyle></Style>
					<MultiGeometry><altitudeMode>absolute</altitudeMode>
						<Point><coordinates> 4.348400616038999,44.58366016950964</coordinates></Point>
					</MultiGeometry>
					</Placemark>
					<Placemark id='insee07093'>
					<name>Genestelle</name>
					<address>Monument aux Morts<br />07-Genestelle (Ardèche)</address>
					<styleUrl>#geocode</styleUrl><Style id='failed07093'><IconStyle><scale>0.8</scale></IconStyle><LabelStyle><scale>0.8</scale></LabelStyle></Style>
					<MultiGeometry><altitudeMode>absolute</altitudeMode>
						<Point><coordinates> 4.3919174244037436,44.718834021023</coordinates></Point>
					</MultiGeometry>
					</Placemark>
					<Placemark id='insee07095'>
					<name>Gilhoc-sur-Ormèze</name>
					<address>Monument aux Morts<br />07-Gilhoc-sur-Ormèze (Ardèche)</address>
					<styleUrl>#geocode</styleUrl><Style id='failed07095'><IconStyle><scale>0.8</scale></IconStyle><LabelStyle><scale>0.8</scale></LabelStyle></Style>
					<MultiGeometry><altitudeMode>absolute</altitudeMode>
						<Point><coordinates> 4.6885837817216265,44.98772882648426</coordinates></Point>
					</MultiGeometry>
					</Placemark>
					<Placemark id='insee07096'>
					<name>Gluiras</name>
					<address>Monument aux Morts<br />07-Gluiras (Ardèche)</address>
					<styleUrl>#geocode</styleUrl><Style id='failed07096'><IconStyle><scale>0.8</scale></IconStyle><LabelStyle><scale>0.8</scale></LabelStyle></Style>
					<MultiGeometry><altitudeMode>absolute</altitudeMode>
						<Point><coordinates> 4.523213956243963,44.84690238250897</coordinates></Point>
					</MultiGeometry>
					</Placemark>
					<Placemark id='insee07097'>
					<name>Glun</name>
					<address>Monument aux Morts<br />07-Glun (Ardèche)</address>
					<styleUrl>#geocode</styleUrl><Style id='failed07097'><IconStyle><scale>0.8</scale></IconStyle><LabelStyle><scale>0.8</scale></LabelStyle></Style>
					<MultiGeometry><altitudeMode>absolute</altitudeMode>
						<Point><coordinates> 4.836576712665878,45.01648911935424</coordinates></Point>
					</MultiGeometry>
					</Placemark>
					<Placemark id='insee07098'>
					<name>Gourdon</name>
					<address>Monument aux Morts<br />07-Gourdon (Ardèche)</address>
					<styleUrl>#geocode</styleUrl><Style id='failed07098'><IconStyle><scale>0.8</scale></IconStyle><LabelStyle><scale>0.8</scale></LabelStyle></Style>
					<MultiGeometry><altitudeMode>absolute</altitudeMode>
						<Point><coordinates> 4.447234683049552,44.73145967393177</coordinates></Point>
					</MultiGeometry>
					</Placemark>
					<Placemark id='insee07099'>
					<name>Gras</name>
					<address>Monument aux Morts<br />07-Gras (Ardèche)</address>
					<styleUrl>#geocode</styleUrl><Style id='failed07099'><IconStyle><scale>0.8</scale></IconStyle><LabelStyle><scale>0.8</scale></LabelStyle></Style>
					<MultiGeometry><altitudeMode>absolute</altitudeMode>
						<Point><coordinates> 4.542916384803754,44.444667055523155</coordinates></Point>
					</MultiGeometry>
					</Placemark>
					<Placemark id='insee07100'>
					<name>Gravières</name>
					<address>Monument aux Morts<br />07-Gravières (Ardèche)</address>
					<styleUrl>#geocode</styleUrl><Style id='failed07100'><IconStyle><scale>0.8</scale></IconStyle><LabelStyle><scale>0.8</scale></LabelStyle></Style>
					<MultiGeometry><altitudeMode>absolute</altitudeMode>
						<Point><coordinates> 4.091439005442095,44.42120516444739</coordinates></Point>
					</MultiGeometry>
					</Placemark>
					<Placemark id='insee07101'>
					<name>Grospierres</name>
					<address>Monument aux Morts<br />07-Grospierres (Ardèche)</address>
					<styleUrl>#geocode</styleUrl><Style id='failed07101'><IconStyle><scale>0.8</scale></IconStyle><LabelStyle><scale>0.8</scale></LabelStyle></Style>
					<MultiGeometry><altitudeMode>absolute</altitudeMode>
						<Point><coordinates> 4.290057481828315,44.399209274078785</coordinates></Point>
					</MultiGeometry>
					</Placemark>
					<Placemark id='insee07102'>
					<name>Guilherand-Granges</name>
					<address>Monument aux Morts<br />07-Guilherand-Granges (Ardèche)</address>
					<styleUrl>#geocode</styleUrl><Style id='failed07102'><IconStyle><scale>0.8</scale></IconStyle><LabelStyle><scale>0.8</scale></LabelStyle></Style>
					<MultiGeometry><altitudeMode>absolute</altitudeMode>
						<Point><coordinates> 4.8720402151771856,44.93284351395792</coordinates></Point>
					</MultiGeometry>
					</Placemark>
					<Placemark id='insee07103'>
					<name>Saint-Julien-d'Intres (commune nouvelle)</name>
					<address>Monument aux Morts [Saint-Julien-Boutières]<br />07-Saint-Julien-d'Intres (commune nouvelle) (Ardèche)</address>
					<styleUrl>#geocode</styleUrl><Style id='failed07103'><IconStyle><scale>0.8</scale></IconStyle><LabelStyle><scale>0.8</scale></LabelStyle></Style>
					<MultiGeometry><altitudeMode>absolute</altitudeMode>
						<Point><coordinates> 4.349923315093475,44.97328729057672</coordinates></Point>
					</MultiGeometry>
					</Placemark>
					<Placemark id='insee07104'>
					<name>Issamoulenc</name>
					<address>Monument aux Morts<br />07-Issamoulenc (Ardèche)</address>
					<styleUrl>#geocode</styleUrl><Style id='failed07104'><IconStyle><scale>0.8</scale></IconStyle><LabelStyle><scale>0.8</scale></LabelStyle></Style>
					<MultiGeometry><altitudeMode>absolute</altitudeMode>
						<Point><coordinates> 4.475421317637004,44.782937902473485</coordinates></Point>
					</MultiGeometry>
					</Placemark>
					<Placemark id='insee07105'>
					<name>Issanlas</name>
					<address>Monument aux Morts<br />07-Issanlas (Ardèche)</address>
					<styleUrl>#geocode</styleUrl><Style id='failed07105'><IconStyle><scale>0.8</scale></IconStyle><LabelStyle><scale>0.8</scale></LabelStyle></Style>
					<MultiGeometry><altitudeMode>absolute</altitudeMode>
						<Point><coordinates> 4.012377696608147,44.76503794497344</coordinates></Point>
					</MultiGeometry>
					</Placemark>
					<Placemark id='insee07106'>
					<name>Issarlès</name>
					<address>Monument aux Morts<br />07-Issarlès (Ardèche)</address>
					<styleUrl>#geocode</styleUrl><Style id='failed07106'><IconStyle><scale>0.8</scale></IconStyle><LabelStyle><scale>0.8</scale></LabelStyle></Style>
					<MultiGeometry><altitudeMode>absolute</altitudeMode>
						<Point><coordinates> 4.030587255568911,44.842709333834435</coordinates></Point>
					</MultiGeometry>
					</Placemark>
					<Placemark id='insee07107'>
					<name>Jaujac</name>
					<address>Monument aux Morts<br />07-Jaujac (Ardèche)</address>
					<styleUrl>#geocode</styleUrl><Style id='failed07107'><IconStyle><scale>0.8</scale></IconStyle><LabelStyle><scale>0.8</scale></LabelStyle></Style>
					<MultiGeometry><altitudeMode>absolute</altitudeMode>
						<Point><coordinates> 4.2552416497396965,44.63659175758657</coordinates></Point>
					</MultiGeometry>
					</Placemark>
					<Placemark id='insee07108'>
					<name>Jaunac</name>
					<address>Monument aux Morts<br />07-Jaunac (Ardèche)</address>
					<styleUrl>#geocode</styleUrl><Style id='failed07108'><IconStyle><scale>0.8</scale></IconStyle><LabelStyle><scale>0.8</scale></LabelStyle></Style>
					<MultiGeometry><altitudeMode>absolute</altitudeMode>
						<Point><coordinates> 4.399103707893633,44.91743328614713</coordinates></Point>
					</MultiGeometry>
					</Placemark>
					<Placemark id='insee07109'>
					<name>Joannas</name>
					<address>Monument aux Morts<br />07-Joannas (Ardèche)</address>
					<styleUrl>#geocode</styleUrl><Style id='failed07109'><IconStyle><scale>0.8</scale></IconStyle><LabelStyle><scale>0.8</scale></LabelStyle></Style>
					<MultiGeometry><altitudeMode>absolute</altitudeMode>
						<Point><coordinates> 4.250572620639518,44.56594372233497</coordinates></Point>
					</MultiGeometry>
					</Placemark>
					<Placemark id='insee07110'>
					<name>Joyeuse</name>
					<address>Monument aux Morts<br />07-Joyeuse (Ardèche)</address>
					<styleUrl>#geocode</styleUrl><Style id='failed07110'><IconStyle><scale>0.8</scale></IconStyle><LabelStyle><scale>0.8</scale></LabelStyle></Style>
					<MultiGeometry><altitudeMode>absolute</altitudeMode>
						<Point><coordinates> 4.23787315745669,44.479923123025365</coordinates></Point>
					</MultiGeometry>
					</Placemark>
					<Placemark id='insee07112'>
					<name>Labastide-sur-Bésorgues</name>
					<address>Monument aux Morts<br />07-Labastide-sur-Bésorgues (Ardèche)</address>
					<styleUrl>#geocode</styleUrl><Style id='failed07112'><IconStyle><scale>0.8</scale></IconStyle><LabelStyle><scale>0.8</scale></LabelStyle></Style>
					<MultiGeometry><altitudeMode>absolute</altitudeMode>
						<Point><coordinates> 4.302881872592034,44.72486009264998</coordinates></Point>
					</MultiGeometry>
					</Placemark>
					<Placemark id='insee07113'>
					<name>Labastide-de-Virac</name>
					<address>Monument aux Morts<br />07-Labastide-de-Virac (Ardèche)</address>
					<styleUrl>#geocode</styleUrl><Style id='failed07113'><IconStyle><scale>0.8</scale></IconStyle><LabelStyle><scale>0.8</scale></LabelStyle></Style>
					<MultiGeometry><altitudeMode>absolute</altitudeMode>
						<Point><coordinates> 4.3998817181419385,44.351811155691664</coordinates></Point>
					</MultiGeometry>
					</Placemark>
					<Placemark id='insee07114'>
					<name>Labatie-d'Andaure</name>
					<address>Monument aux Morts<br />07-Labatie-d'Andaure (Ardèche)</address>
					<styleUrl>#geocode</styleUrl><Style id='failed07114'><IconStyle><scale>0.8</scale></IconStyle><LabelStyle><scale>0.8</scale></LabelStyle></Style>
					<MultiGeometry><altitudeMode>absolute</altitudeMode>
						<Point><coordinates> 4.49231542240839,45.02229250412998</coordinates></Point>
					</MultiGeometry>
					</Placemark>
					<Placemark id='insee07115'>
					<name>Labeaume</name>
					<address>Monument aux Morts (Labeaume bourg)<br />07-Labeaume (Ardèche)</address>
					<styleUrl>#geocode</styleUrl><Style id='failed07115'><IconStyle><scale>0.8</scale></IconStyle><LabelStyle><scale>0.8</scale></LabelStyle></Style>
					<MultiGeometry><altitudeMode>absolute</altitudeMode>
						<Point><coordinates> 4.305421431209945,44.448112647788406</coordinates></Point>
					</MultiGeometry>
					</Placemark>
					<Placemark id='insee07116'>
					<name>Labégude</name>
					<address>Monument aux Morts<br />07-Labégude (Ardèche)</address>
					<styleUrl>#geocode</styleUrl><Style id='failed07116'><IconStyle><scale>0.8</scale></IconStyle><LabelStyle><scale>0.8</scale></LabelStyle></Style>
					<MultiGeometry><altitudeMode>absolute</altitudeMode>
						<Point><coordinates> 4.368981742497771,44.64660250075001</coordinates></Point>
					</MultiGeometry>
					</Placemark>
					<Placemark id='insee07117'>
					<name>Lablachère</name>
					<address>Monument aux Morts<br />07-Lablachère (Ardèche)</address>
					<styleUrl>#geocode</styleUrl><Style id='failed07117'><IconStyle><scale>0.8</scale></IconStyle><LabelStyle><scale>0.8</scale></LabelStyle></Style>
					<MultiGeometry><altitudeMode>absolute</altitudeMode>
						<Point><coordinates> 4.2141111111111,44.463222222222</coordinates></Point>
					</MultiGeometry>
					</Placemark>
					<Placemark id='insee07119'>
					<name>Le Lac-d'Issarlès</name>
					<address>Monument aux Morts<br />07-Le Lac-d'Issarlès (Ardèche)</address>
					<styleUrl>#geocode</styleUrl><Style id='failed07119'><IconStyle><scale>0.8</scale></IconStyle><LabelStyle><scale>0.8</scale></LabelStyle></Style>
					<MultiGeometry><altitudeMode>absolute</altitudeMode>
						<Point><coordinates> 4.061449429806648,44.82111409612106</coordinates></Point>
					</MultiGeometry>
					</Placemark>
					<Placemark id='insee07121'>
					<name>Lachapelle-Graillouse</name>
					<address>Monument aux Morts<br />07-Lachapelle-Graillouse (Ardèche)</address>
					<styleUrl>#geocode</styleUrl><Style id='failed07121'><IconStyle><scale>0.8</scale></IconStyle><LabelStyle><scale>0.8</scale></LabelStyle></Style>
					<MultiGeometry><altitudeMode>absolute</altitudeMode>
						<Point><coordinates> 4.0206773726994465,44.81344080146793</coordinates></Point>
					</MultiGeometry>
					</Placemark>
					<Placemark id='insee07122'>
					<name>Lachapelle-sous-Aubenas</name>
					<address>Monument aux Morts<br />07-Lachapelle-sous-Aubenas (Ardèche)</address>
					<styleUrl>#geocode</styleUrl><Style id='failed07122'><IconStyle><scale>0.8</scale></IconStyle><LabelStyle><scale>0.8</scale></LabelStyle></Style>
					<MultiGeometry><altitudeMode>absolute</altitudeMode>
						<Point><coordinates> 4.3658561036611365,44.56609421120827</coordinates></Point>
					</MultiGeometry>
					</Placemark>
					<Placemark id='insee07126'>
					<name>Lagorce</name>
					<address>Monument aux Morts<br />07-Lagorce (Ardèche)</address>
					<styleUrl>#geocode</styleUrl><Style id='failed07126'><IconStyle><scale>0.8</scale></IconStyle><LabelStyle><scale>0.8</scale></LabelStyle></Style>
					<MultiGeometry><altitudeMode>absolute</altitudeMode>
						<Point><coordinates> 4.417293531183461,44.44733859195918</coordinates></Point>
					</MultiGeometry>
					</Placemark>
					<Placemark id='insee07127'>
					<name>Lalevade-d'Ardèche</name>
					<address>Monument aux Morts<br />07-Lalevade-d'Ardèche (Ardèche)</address>
					<styleUrl>#geocode</styleUrl><Style id='failed07127'><IconStyle><scale>0.8</scale></IconStyle><LabelStyle><scale>0.8</scale></LabelStyle></Style>
					<MultiGeometry><altitudeMode>absolute</altitudeMode>
						<Point><coordinates> 4.322666320391713,44.6493681362072</coordinates></Point>
					</MultiGeometry>
					</Placemark>
					<Placemark id='insee07128'>
					<name>Lalouvesc</name>
					<address>Monument aux Morts<br />07-Lalouvesc (Ardèche)</address>
					<styleUrl>#geocode</styleUrl><Style id='failed07128'><IconStyle><scale>0.8</scale></IconStyle><LabelStyle><scale>0.8</scale></LabelStyle></Style>
					<MultiGeometry><altitudeMode>absolute</altitudeMode>
						<Point><coordinates> 4.534368450464158,45.11988713675373</coordinates></Point>
					</MultiGeometry>
					</Placemark>
					<Placemark id='insee07129'>
					<name>Lamastre</name>
					<address>Monument aux Morts<br />07-Lamastre (Ardèche)</address>
					<styleUrl>#geocode</styleUrl><Style id='failed07129'><IconStyle><scale>0.8</scale></IconStyle><LabelStyle><scale>0.8</scale></LabelStyle></Style>
					<MultiGeometry><altitudeMode>absolute</altitudeMode>
						<Point><coordinates> 4.5812281078058446,44.98665130126409</coordinates></Point>
					</MultiGeometry>
					</Placemark>
					<Placemark id='insee07130'>
					<name>Lanarce</name>
					<address>Monument aux Morts<br />07-Lanarce (Ardèche)</address>
					<styleUrl>#geocode</styleUrl><Style id='failed07130'><IconStyle><scale>0.8</scale></IconStyle><LabelStyle><scale>0.8</scale></LabelStyle></Style>
					<MultiGeometry><altitudeMode>absolute</altitudeMode>
						<Point><coordinates> 4.002513328241039,44.72856499352016</coordinates></Point>
					</MultiGeometry>
					</Placemark>
					<Placemark id='insee07131'>
					<name>Lanas</name>
					<address>Monument aux Morts<br />07-Lanas (Ardèche)</address>
					<styleUrl>#geocode</styleUrl><Style id='failed07131'><IconStyle><scale>0.8</scale></IconStyle><LabelStyle><scale>0.8</scale></LabelStyle></Style>
					<MultiGeometry><altitudeMode>absolute</altitudeMode>
						<Point><coordinates> 4.400034565776269,44.53378758032</coordinates></Point>
					</MultiGeometry>
					</Placemark>
					<Placemark id='insee07132'>
					<name>Largentière</name>
					<address>Monument aux Morts<br />07-Largentière (Ardèche)</address>
					<styleUrl>#geocode</styleUrl><Style id='failed07132'><IconStyle><scale>0.8</scale></IconStyle><LabelStyle><scale>0.8</scale></LabelStyle></Style>
					<MultiGeometry><altitudeMode>absolute</altitudeMode>
						<Point><coordinates> 4.290799294507812,44.54160362212296</coordinates></Point>
					</MultiGeometry>
					</Placemark>
					<Placemark id='insee07133'>
					<name>Larnas</name>
					<address>Monument aux Morts<br />07-Larnas (Ardèche)</address>
					<styleUrl>#geocode</styleUrl><Style id='failed07133'><IconStyle><scale>0.8</scale></IconStyle><LabelStyle><scale>0.8</scale></LabelStyle></Style>
					<MultiGeometry><altitudeMode>absolute</altitudeMode>
						<Point><coordinates> 4.599554626062309,44.44913881173362</coordinates></Point>
					</MultiGeometry>
					</Placemark>
					<Placemark id='insee07134'>
					<name>Laurac-en-Vivarais</name>
					<address>Monument aux Morts<br />07-Laurac-en-Vivarais (Ardèche)</address>
					<styleUrl>#geocode</styleUrl><Style id='failed07134'><IconStyle><scale>0.8</scale></IconStyle><LabelStyle><scale>0.8</scale></LabelStyle></Style>
					<MultiGeometry><altitudeMode>absolute</altitudeMode>
						<Point><coordinates> 4.2900730551390325,44.50872843848863</coordinates></Point>
					</MultiGeometry>
					</Placemark>
					<Placemark id='insee07136'>
					<name>Laveyrune</name>
					<address>Monument aux Morts<br />07-Laveyrune (Ardèche)</address>
					<styleUrl>#geocode</styleUrl><Style id='failed07136'><IconStyle><scale>0.8</scale></IconStyle><LabelStyle><scale>0.8</scale></LabelStyle></Style>
					<MultiGeometry><altitudeMode>absolute</altitudeMode>
						<Point><coordinates> 3.895041588527938,44.62862830432653</coordinates></Point>
					</MultiGeometry>
					</Placemark>
					<Placemark id='insee07138'>
					<name>Lavilledieu</name>
					<address>Monument aux Morts<br />07-Lavilledieu (Ardèche)</address>
					<styleUrl>#geocode</styleUrl><Style id='failed07138'><IconStyle><scale>0.8</scale></IconStyle><LabelStyle><scale>0.8</scale></LabelStyle></Style>
					<MultiGeometry><altitudeMode>absolute</altitudeMode>
						<Point><coordinates> 4.451942282068129,44.57485568207824</coordinates></Point>
					</MultiGeometry>
					</Placemark>
					<Placemark id='insee07139'>
					<name>Laviolle</name>
					<address>Monument aux Morts<br />07-Laviolle (Ardèche)</address>
					<styleUrl>#geocode</styleUrl><Style id='failed07139'><IconStyle><scale>0.8</scale></IconStyle><LabelStyle><scale>0.8</scale></LabelStyle></Style>
					<MultiGeometry><altitudeMode>absolute</altitudeMode>
						<Point><coordinates> 4.338703168173841,44.76267084900566</coordinates></Point>
					</MultiGeometry>
					</Placemark>
					<Placemark id='insee07140'>
					<name>Lemps</name>
					<address>Monument aux Morts<br />07-Lemps (Ardèche)</address>
					<styleUrl>#geocode</styleUrl><Style id='failed07140'><IconStyle><scale>0.8</scale></IconStyle><LabelStyle><scale>0.8</scale></LabelStyle></Style>
					<MultiGeometry><altitudeMode>absolute</altitudeMode>
						<Point><coordinates> 4.764936517082622,45.108185571756884</coordinates></Point>
					</MultiGeometry>
					</Placemark>
					<Placemark id='insee07141'>
					<name>Lentillères</name>
					<address>Monument aux Morts<br />07-Lentillères (Ardèche)</address>
					<styleUrl>#geocode</styleUrl><Style id='failed07141'><IconStyle><scale>0.8</scale></IconStyle><LabelStyle><scale>0.8</scale></LabelStyle></Style>
					<MultiGeometry><altitudeMode>absolute</altitudeMode>
						<Point><coordinates> 4.3133040242274,44.6134327417278</coordinates></Point>
					</MultiGeometry>
					</Placemark>
					<Placemark id='insee07142'>
					<name>Lespéron</name>
					<address>Monument aux Morts<br />07-Lespéron (Ardèche)</address>
					<styleUrl>#geocode</styleUrl><Style id='failed07142'><IconStyle><scale>0.8</scale></IconStyle><LabelStyle><scale>0.8</scale></LabelStyle></Style>
					<MultiGeometry><altitudeMode>absolute</altitudeMode>
						<Point><coordinates> 3.8972627416915504,44.730407018588096</coordinates></Point>
					</MultiGeometry>
					</Placemark>
					<Placemark id='insee07143'>
					<name>Limony</name>
					<address>Monument aux Morts<br />07-Limony (Ardèche)</address>
					<styleUrl>#geocode</styleUrl><Style id='failed07143'><IconStyle><scale>0.8</scale></IconStyle><LabelStyle><scale>0.8</scale></LabelStyle></Style>
					<MultiGeometry><altitudeMode>absolute</altitudeMode>
						<Point><coordinates> 4.758321992302507,45.35233757527518</coordinates></Point>
					</MultiGeometry>
					</Placemark>
					<Placemark id='insee07144'>
					<name>Loubaresse</name>
					<address>Monument aux Morts<br />07-Loubaresse (Ardèche)</address>
					<styleUrl>#geocode</styleUrl><Style id='failed07144'><IconStyle><scale>0.8</scale></IconStyle><LabelStyle><scale>0.8</scale></LabelStyle></Style>
					<MultiGeometry><altitudeMode>absolute</altitudeMode>
						<Point><coordinates> 4.048768355800876,44.60057150567961</coordinates></Point>
					</MultiGeometry>
					</Placemark>
					<Placemark id='insee07145'>
					<name>Lussas</name>
					<address>Monument aux Morts<br />07-Lussas (Ardèche)</address>
					<styleUrl>#geocode</styleUrl><Style id='failed07145'><IconStyle><scale>0.8</scale></IconStyle><LabelStyle><scale>0.8</scale></LabelStyle></Style>
					<MultiGeometry><altitudeMode>absolute</altitudeMode>
						<Point><coordinates> 4.472361844233499,44.61222954554682</coordinates></Point>
					</MultiGeometry>
					</Placemark>
					<Placemark id='insee07146'>
					<name>Lyas</name>
					<address>Monument aux Morts<br />07-Lyas (Ardèche)</address>
					<styleUrl>#geocode</styleUrl><Style id='failed07146'><IconStyle><scale>0.8</scale></IconStyle><LabelStyle><scale>0.8</scale></LabelStyle></Style>
					<MultiGeometry><altitudeMode>absolute</altitudeMode>
						<Point><coordinates> 4.597915017510618,44.757941205403824</coordinates></Point>
					</MultiGeometry>
					</Placemark>
					<Placemark id='insee07147'>
					<name>Malarce-sur-la-Thines</name>
					<address>Monument aux Morts de Malarce<br />07-Malarce-sur-la-Thines (Ardèche)</address>
					<styleUrl>#geocode</styleUrl><Style id='failed07147'><IconStyle><scale>0.8</scale></IconStyle><LabelStyle><scale>0.8</scale></LabelStyle></Style>
					<MultiGeometry><altitudeMode>absolute</altitudeMode>
						<Point><coordinates> 4.073582025322085,44.446240107593</coordinates></Point>
					</MultiGeometry>
					</Placemark>
					<Placemark id='insee07148'>
					<name>Malbosc</name>
					<address>Monument aux Morts<br />07-Malbosc (Ardèche)</address>
					<styleUrl>#geocode</styleUrl><Style id='failed07148'><IconStyle><scale>0.8</scale></IconStyle><LabelStyle><scale>0.8</scale></LabelStyle></Style>
					<MultiGeometry><altitudeMode>absolute</altitudeMode>
						<Point><coordinates> 4.073279748268803,44.34659314779152</coordinates></Point>
					</MultiGeometry>
					</Placemark>
					<Placemark id='insee07149'>
					<name>Marcols-les-Eaux</name>
					<address>Monument aux Morts<br />07-Marcols-les-Eaux (Ardèche)</address>
					<styleUrl>#geocode</styleUrl><Style id='failed07149'><IconStyle><scale>0.8</scale></IconStyle><LabelStyle><scale>0.8</scale></LabelStyle></Style>
					<MultiGeometry><altitudeMode>absolute</altitudeMode>
						<Point><coordinates> 4.402627487465132,44.81576584576593</coordinates></Point>
					</MultiGeometry>
					</Placemark>
					<Placemark id='insee07150'>
					<name>Mariac</name>
					<address>Monument aux Morts<br />07-Mariac (Ardèche)</address>
					<styleUrl>#geocode</styleUrl><Style id='failed07150'><IconStyle><scale>0.8</scale></IconStyle><LabelStyle><scale>0.8</scale></LabelStyle></Style>
					<MultiGeometry><altitudeMode>absolute</altitudeMode>
						<Point><coordinates> 4.364492767984251,44.88279827008914</coordinates></Point>
					</MultiGeometry>
					</Placemark>
					<Placemark id='insee07151'>
					<name>Mars</name>
					<address>Monument aux Morts<br />07-Mars (Ardèche)</address>
					<styleUrl>#geocode</styleUrl><Style id='failed07151'><IconStyle><scale>0.8</scale></IconStyle><LabelStyle><scale>0.8</scale></LabelStyle></Style>
					<MultiGeometry><altitudeMode>absolute</altitudeMode>
						<Point><coordinates> 4.324643150238975,45.0221134198302</coordinates></Point>
					</MultiGeometry>
					</Placemark>
					<Placemark id='insee07152'>
					<name>Mauves</name>
					<address>Monument aux Morts<br />07-Mauves (Ardèche)</address>
					<styleUrl>#geocode</styleUrl><Style id='failed07152'><IconStyle><scale>0.8</scale></IconStyle><LabelStyle><scale>0.8</scale></LabelStyle></Style>
					<MultiGeometry><altitudeMode>absolute</altitudeMode>
						<Point><coordinates> 4.830028385941036,45.03713673229297</coordinates></Point>
					</MultiGeometry>
					</Placemark>
					<Placemark id='insee07153'>
					<name>Mayres</name>
					<address>Monument aux Morts<br />07-Mayres (Ardèche)</address>
					<styleUrl>#geocode</styleUrl><Style id='failed07153'><IconStyle><scale>0.8</scale></IconStyle><LabelStyle><scale>0.8</scale></LabelStyle></Style>
					<MultiGeometry><altitudeMode>absolute</altitudeMode>
						<Point><coordinates> 4.117067764080108,44.66479583249667</coordinates></Point>
					</MultiGeometry>
					</Placemark>
					<Placemark id='insee07154'>
					<name>Mazan-l'Abbaye</name>
					<address>Monument aux Morts<br />07-Mazan-l'Abbaye (Ardèche)</address>
					<styleUrl>#geocode</styleUrl><Style id='failed07154'><IconStyle><scale>0.8</scale></IconStyle><LabelStyle><scale>0.8</scale></LabelStyle></Style>
					<MultiGeometry><altitudeMode>absolute</altitudeMode>
						<Point><coordinates> 4.088478451928359,44.728539830172856</coordinates></Point>
					</MultiGeometry>
					</Placemark>
					<Placemark id='insee07155'>
					<name>Mercuer</name>
					<address>Monument aux Morts<br />07-Mercuer (Ardèche)</address>
					<styleUrl>#geocode</styleUrl><Style id='failed07155'><IconStyle><scale>0.8</scale></IconStyle><LabelStyle><scale>0.8</scale></LabelStyle></Style>
					<MultiGeometry><altitudeMode>absolute</altitudeMode>
						<Point><coordinates> 4.358496597116752,44.63167272771378</coordinates></Point>
					</MultiGeometry>
					</Placemark>
					<Placemark id='insee07156'>
					<name>Meyras</name>
					<address>Monument aux Morts<br />07-Meyras (Ardèche)</address>
					<styleUrl>#geocode</styleUrl><Style id='failed07156'><IconStyle><scale>0.8</scale></IconStyle><LabelStyle><scale>0.8</scale></LabelStyle></Style>
					<MultiGeometry><altitudeMode>absolute</altitudeMode>
						<Point><coordinates> 4.267512606866022,44.68089536113758</coordinates></Point>
					</MultiGeometry>
					</Placemark>
					<Placemark id='insee07157'>
					<name>Meysse</name>
					<address>Monument aux Morts<br />07-Meysse (Ardèche)</address>
					<styleUrl>#geocode</styleUrl><Style id='failed07157'><IconStyle><scale>0.8</scale></IconStyle><LabelStyle><scale>0.8</scale></LabelStyle></Style>
					<MultiGeometry><altitudeMode>absolute</altitudeMode>
						<Point><coordinates> 4.72221851637572,44.608199659208054</coordinates></Point>
					</MultiGeometry>
					</Placemark>
					<Placemark id='insee07159'>
					<name>Mirabel</name>
					<address>Monument aux Morts<br />07-Mirabel (Ardèche)</address>
					<styleUrl>#geocode</styleUrl><Style id='failed07159'><IconStyle><scale>0.8</scale></IconStyle><LabelStyle><scale>0.8</scale></LabelStyle></Style>
					<MultiGeometry><altitudeMode>absolute</altitudeMode>
						<Point><coordinates> 4.496821114508026,44.609079697893385</coordinates></Point>
					</MultiGeometry>
					</Placemark>
					<Placemark id='insee07160'>
					<name>Monestier</name>
					<address>Monument aux Morts<br />07-Monestier (Ardèche)</address>
					<styleUrl>#geocode</styleUrl><Style id='failed07160'><IconStyle><scale>0.8</scale></IconStyle><LabelStyle><scale>0.8</scale></LabelStyle></Style>
					<MultiGeometry><altitudeMode>absolute</altitudeMode>
						<Point><coordinates> 4.531812651707289,45.198472696535276</coordinates></Point>
					</MultiGeometry>
					</Placemark>
					<Placemark id='insee07161'>
					<name>Montpezat-sous-Bauzon</name>
					<address>Monument aux Morts<br />07-Montpezat-sous-Bauzon (Ardèche)</address>
					<styleUrl>#geocode</styleUrl><Style id='failed07161'><IconStyle><scale>0.8</scale></IconStyle><LabelStyle><scale>0.8</scale></LabelStyle></Style>
					<MultiGeometry><altitudeMode>absolute</altitudeMode>
						<Point><coordinates> 4.207794103780982,44.710926816970215</coordinates></Point>
					</MultiGeometry>
					</Placemark>
					<Placemark id='insee07162'>
					<name>Montréal</name>
					<address>Monument aux Morts<br />07-Montréal (Ardèche)</address>
					<styleUrl>#geocode</styleUrl><Style id='failed07162'><IconStyle><scale>0.8</scale></IconStyle><LabelStyle><scale>0.8</scale></LabelStyle></Style>
					<MultiGeometry><altitudeMode>absolute</altitudeMode>
						<Point><coordinates> 4.292548056609079,44.52798620206252</coordinates></Point>
					</MultiGeometry>
					</Placemark>
					<Placemark id='insee07165'>
					<name>Belsentes (commune nouvelle)</name>
					<address>Monument aux Morts [Nonières]<br />07-Belsentes (commune nouvelle) (Ardèche)</address>
					<styleUrl>#geocode</styleUrl><Style id='failed07165'><IconStyle><scale>0.8</scale></IconStyle><LabelStyle><scale>0.8</scale></LabelStyle></Style>
					<MultiGeometry><altitudeMode>absolute</altitudeMode>
						<Point><coordinates> 4.486732871064186,44.93281688965852</coordinates></Point>
					</MultiGeometry>
					</Placemark>
					<Placemark id='insee07166'>
					<name>Nozières</name>
					<address>Monument aux Morts<br />07-Nozières (Ardèche)</address>
					<styleUrl>#geocode</styleUrl><Style id='failed07166'><IconStyle><scale>0.8</scale></IconStyle><LabelStyle><scale>0.8</scale></LabelStyle></Style>
					<MultiGeometry><altitudeMode>absolute</altitudeMode>
						<Point><coordinates> 4.544218134786054,45.027338712080194</coordinates></Point>
					</MultiGeometry>
					</Placemark>
					<Placemark id='insee07167'>
					<name>Les Ollières-sur-Eyrieux</name>
					<address>Monument aux Morts<br />07-Les Ollières-sur-Eyrieux (Ardèche)</address>
					<styleUrl>#geocode</styleUrl><Style id='failed07167'><IconStyle><scale>0.8</scale></IconStyle><LabelStyle><scale>0.8</scale></LabelStyle></Style>
					<MultiGeometry><altitudeMode>absolute</altitudeMode>
						<Point><coordinates> 4.619856262860798,44.80539223965269</coordinates></Point>
					</MultiGeometry>
					</Placemark>
					<Placemark id='insee07168'>
					<name>Orgnac-l'Aven</name>
					<address>Nouveau Monument aux Morts<br />07-Orgnac-l'Aven (Ardèche)</address>
					<styleUrl>#geocode</styleUrl><Style id='failed07168'><IconStyle><scale>0.8</scale></IconStyle><LabelStyle><scale>0.8</scale></LabelStyle></Style>
					<MultiGeometry><altitudeMode>absolute</altitudeMode>
						<Point><coordinates> 4.432980299866414,44.305581177357574</coordinates></Point>
					</MultiGeometry>
					</Placemark>
					<Placemark id='insee07169'>
					<name>Ozon</name>
					<address>Monument aux Morts<br />07-Ozon (Ardèche)</address>
					<styleUrl>#geocode</styleUrl><Style id='failed07169'><IconStyle><scale>0.8</scale></IconStyle><LabelStyle><scale>0.8</scale></LabelStyle></Style>
					<MultiGeometry><altitudeMode>absolute</altitudeMode>
						<Point><coordinates> 4.802839550256289,45.16595977129074</coordinates></Point>
					</MultiGeometry>
					</Placemark>
					<Placemark id='insee07170'>
					<name>Pailharès</name>
					<address>Monument aux Morts<br />07-Pailharès (Ardèche)</address>
					<styleUrl>#geocode</styleUrl><Style id='failed07170'><IconStyle><scale>0.8</scale></IconStyle><LabelStyle><scale>0.8</scale></LabelStyle></Style>
					<MultiGeometry><altitudeMode>absolute</altitudeMode>
						<Point><coordinates> 4.565586796455003,45.078415413543595</coordinates></Point>
					</MultiGeometry>
					</Placemark>
					<Placemark id='insee07171'>
					<name>Payzac</name>
					<address>Monument aux Morts<br />07-Payzac (Ardèche)</address>
					<styleUrl>#geocode</styleUrl><Style id='failed07171'><IconStyle><scale>0.8</scale></IconStyle><LabelStyle><scale>0.8</scale></LabelStyle></Style>
					<MultiGeometry><altitudeMode>absolute</altitudeMode>
						<Point><coordinates> 4.153007517196599,44.453293856757924</coordinates></Point>
					</MultiGeometry>
					</Placemark>
					<Placemark id='insee07172'>
					<name>Peaugres</name>
					<address>Monument aux Morts<br />07-Peaugres (Ardèche)</address>
					<styleUrl>#geocode</styleUrl><Style id='failed07172'><IconStyle><scale>0.8</scale></IconStyle><LabelStyle><scale>0.8</scale></LabelStyle></Style>
					<MultiGeometry><altitudeMode>absolute</altitudeMode>
						<Point><coordinates> 4.728709402934502,45.28693943350988</coordinates></Point>
					</MultiGeometry>
					</Placemark>
					<Placemark id='insee07174'>
					<name>Peyraud</name>
					<address>Monument aux Morts<br />07-Peyraud (Ardèche)</address>
					<styleUrl>#geocode</styleUrl><Style id='failed07174'><IconStyle><scale>0.8</scale></IconStyle><LabelStyle><scale>0.8</scale></LabelStyle></Style>
					<MultiGeometry><altitudeMode>absolute</altitudeMode>
						<Point><coordinates> 4.7866321473935685,45.30197325334483</coordinates></Point>
					</MultiGeometry>
					</Placemark>
					<Placemark id='insee07176'>
					<name>Planzolles</name>
					<address>Monument aux Morts<br />07-Planzolles (Ardèche)</address>
					<styleUrl>#geocode</styleUrl><Style id='failed07176'><IconStyle><scale>0.8</scale></IconStyle><LabelStyle><scale>0.8</scale></LabelStyle></Style>
					<MultiGeometry><altitudeMode>absolute</altitudeMode>
						<Point><coordinates> 4.153839699841589,44.4859395960777</coordinates></Point>
					</MultiGeometry>
					</Placemark>
					<Placemark id='insee07177'>
					<name>Plats</name>
					<address>Monument aux Morts<br />07-Plats (Ardèche)</address>
					<styleUrl>#geocode</styleUrl><Style id='failed07177'><IconStyle><scale>0.8</scale></IconStyle><LabelStyle><scale>0.8</scale></LabelStyle></Style>
					<MultiGeometry><altitudeMode>absolute</altitudeMode>
						<Point><coordinates> 4.782432353090128,45.01091699242075</coordinates></Point>
					</MultiGeometry>
					</Placemark>
					<Placemark id='insee07178'>
					<name>Pont-de-Labeaume</name>
					<address>Monument aux Morts<br />07-Pont-de-Labeaume (Ardèche)</address>
					<styleUrl>#geocode</styleUrl><Style id='failed07178'><IconStyle><scale>0.8</scale></IconStyle><LabelStyle><scale>0.8</scale></LabelStyle></Style>
					<MultiGeometry><altitudeMode>absolute</altitudeMode>
						<Point><coordinates> 4.288903252457832,44.66537469521811</coordinates></Point>
					</MultiGeometry>
					</Placemark>
					<Placemark id='insee07181'>
					<name>Le Pouzin</name>
					<address>Monument aux Morts<br />07-Le Pouzin (Ardèche)</address>
					<styleUrl>#geocode</styleUrl><Style id='failed07181'><IconStyle><scale>0.8</scale></IconStyle><LabelStyle><scale>0.8</scale></LabelStyle></Style>
					<MultiGeometry><altitudeMode>absolute</altitudeMode>
						<Point><coordinates> 4.7485888189636665,44.75288739912268</coordinates></Point>
					</MultiGeometry>
					</Placemark>
					<Placemark id='insee07182'>
					<name>Prades</name>
					<address>Monument aux Morts<br />07-Prades (Ardèche)</address>
					<styleUrl>#geocode</styleUrl><Style id='failed07182'><IconStyle><scale>0.8</scale></IconStyle><LabelStyle><scale>0.8</scale></LabelStyle></Style>
					<MultiGeometry><altitudeMode>absolute</altitudeMode>
						<Point><coordinates> 4.3166070044824565,44.63830701044562</coordinates></Point>
					</MultiGeometry>
					</Placemark>
					<Placemark id='insee07183'>
					<name>Pradons</name>
					<address>Monument aux Morts<br />07-Pradons (Ardèche)</address>
					<styleUrl>#geocode</styleUrl><Style id='failed07183'><IconStyle><scale>0.8</scale></IconStyle><LabelStyle><scale>0.8</scale></LabelStyle></Style>
					<MultiGeometry><altitudeMode>absolute</altitudeMode>
						<Point><coordinates> 4.356492070041353,44.47567818421919</coordinates></Point>
					</MultiGeometry>
					</Placemark>
					<Placemark id='insee07184'>
					<name>Pranles</name>
					<address>Monument aux Morts<br />07-Pranles (Ardèche)</address>
					<styleUrl>#geocode</styleUrl><Style id='failed07184'><IconStyle><scale>0.8</scale></IconStyle><LabelStyle><scale>0.8</scale></LabelStyle></Style>
					<MultiGeometry><altitudeMode>absolute</altitudeMode>
						<Point><coordinates> 4.5748648832149446,44.77219893054338</coordinates></Point>
					</MultiGeometry>
					</Placemark>
					<Placemark id='insee07186'>
					<name>Privas</name>
					<address>Monument aux Morts<br />07-Privas (Ardèche)</address>
					<styleUrl>#geocode</styleUrl><Style id='failed07186'><IconStyle><scale>0.8</scale></IconStyle><LabelStyle><scale>0.8</scale></LabelStyle></Style>
					<MultiGeometry><altitudeMode>absolute</altitudeMode>
						<Point><coordinates> 4.596813757293229,44.73482743416784</coordinates></Point>
					</MultiGeometry>
					</Placemark>
					<Placemark id='insee07187'>
					<name>Prunet</name>
					<address>Monument aux Morts<br />07-Prunet (Ardèche)</address>
					<styleUrl>#geocode</styleUrl><Style id='failed07187'><IconStyle><scale>0.8</scale></IconStyle><LabelStyle><scale>0.8</scale></LabelStyle></Style>
					<MultiGeometry><altitudeMode>absolute</altitudeMode>
						<Point><coordinates> 4.260189817140792,44.596841871458174</coordinates></Point>
					</MultiGeometry>
					</Placemark>
					<Placemark id='insee07188'>
					<name>Quintenas</name>
					<address>Monument aux Morts<br />07-Quintenas (Ardèche)</address>
					<styleUrl>#geocode</styleUrl><Style id='failed07188'><IconStyle><scale>0.8</scale></IconStyle><LabelStyle><scale>0.8</scale></LabelStyle></Style>
					<MultiGeometry><altitudeMode>absolute</altitudeMode>
						<Point><coordinates> 4.693693836051504,45.18830872744659</coordinates></Point>
					</MultiGeometry>
					</Placemark>
					<Placemark id='insee07189'>
					<name>Ribes</name>
					<address>Monument aux Morts<br />07-Ribes (Ardèche)</address>
					<styleUrl>#geocode</styleUrl><Style id='failed07189'><IconStyle><scale>0.8</scale></IconStyle><LabelStyle><scale>0.8</scale></LabelStyle></Style>
					<MultiGeometry><altitudeMode>absolute</altitudeMode>
						<Point><coordinates> 4.207212261290899,44.4952316494868</coordinates></Point>
					</MultiGeometry>
					</Placemark>
					<Placemark id='insee07190'>
					<name>Rochecolombe</name>
					<address>Monument aux Morts<br />07-Rochecolombe (Ardèche)</address>
					<styleUrl>#geocode</styleUrl><Style id='failed07190'><IconStyle><scale>0.8</scale></IconStyle><LabelStyle><scale>0.8</scale></LabelStyle></Style>
					<MultiGeometry><altitudeMode>absolute</altitudeMode>
						<Point><coordinates> 4.43287492915011,44.51713612310536</coordinates></Point>
					</MultiGeometry>
					</Placemark>
					<Placemark id='insee07191'>
					<name>Rochemaure</name>
					<address>Monument aux Morts<br />07-Rochemaure (Ardèche)</address>
					<styleUrl>#geocode</styleUrl><Style id='failed07191'><IconStyle><scale>0.8</scale></IconStyle><LabelStyle><scale>0.8</scale></LabelStyle></Style>
					<MultiGeometry><altitudeMode>absolute</altitudeMode>
						<Point><coordinates> 4.70499450956828,44.58909802826597</coordinates></Point>
					</MultiGeometry>
					</Placemark>
					<Placemark id='insee07192'>
					<name>Rochepaule</name>
					<address>Monument aux Morts<br />07-Rochepaule (Ardèche)</address>
					<styleUrl>#geocode</styleUrl><Style id='failed07192'><IconStyle><scale>0.8</scale></IconStyle><LabelStyle><scale>0.8</scale></LabelStyle></Style>
					<MultiGeometry><altitudeMode>absolute</altitudeMode>
						<Point><coordinates> 4.456213280284563,45.07749015542813</coordinates></Point>
					</MultiGeometry>
					</Placemark>
					<Placemark id='insee07193'>
					<name>Rocher</name>
					<address>Monument aux Morts<br />07-Rocher (Ardèche)</address>
					<styleUrl>#geocode</styleUrl><Style id='failed07193'><IconStyle><scale>0.8</scale></IconStyle><LabelStyle><scale>0.8</scale></LabelStyle></Style>
					<MultiGeometry><altitudeMode>absolute</altitudeMode>
						<Point><coordinates> 4.284790073249933,44.57634101730898</coordinates></Point>
					</MultiGeometry>
					</Placemark>
					<Placemark id='insee07194'>
					<name>Rochessauve</name>
					<address>Monument aux Morts<br />07-Rochessauve (Ardèche)</address>
					<styleUrl>#geocode</styleUrl><Style id='failed07194'><IconStyle><scale>0.8</scale></IconStyle><LabelStyle><scale>0.8</scale></LabelStyle></Style>
					<MultiGeometry><altitudeMode>absolute</altitudeMode>
						<Point><coordinates> 4.6257190484374755,44.67952374788682</coordinates></Point>
					</MultiGeometry>
					</Placemark>
					<Placemark id='insee07196'>
					<name>Rocles</name>
					<address>Monument aux Morts<br />07-Rocles (Ardèche)</address>
					<styleUrl>#geocode</styleUrl><Style id='failed07196'><IconStyle><scale>0.8</scale></IconStyle><LabelStyle><scale>0.8</scale></LabelStyle></Style>
					<MultiGeometry><altitudeMode>absolute</altitudeMode>
						<Point><coordinates> 4.21626440248218,44.56220754523181</coordinates></Point>
					</MultiGeometry>
					</Placemark>
					<Placemark id='insee07197'>
					<name>Roiffieux</name>
					<address>Monument aux Morts<br />07-Roiffieux (Ardèche)</address>
					<styleUrl>#geocode</styleUrl><Style id='failed07197'><IconStyle><scale>0.8</scale></IconStyle><LabelStyle><scale>0.8</scale></LabelStyle></Style>
					<MultiGeometry><altitudeMode>absolute</altitudeMode>
						<Point><coordinates> 4.657167520568808,45.229422818706546</coordinates></Point>
					</MultiGeometry>
					</Placemark>
					<Placemark id='insee07198'>
					<name>Rompon</name>
					<address>Monument aux Morts<br />07-Rompon (Ardèche)</address>
					<styleUrl>#geocode</styleUrl><Style id='failed07198'><IconStyle><scale>0.8</scale></IconStyle><LabelStyle><scale>0.8</scale></LabelStyle></Style>
					<MultiGeometry><altitudeMode>absolute</altitudeMode>
						<Point><coordinates> 4.721704853732355,44.76181412974496</coordinates></Point>
					</MultiGeometry>
					</Placemark>
					<Placemark id='insee07199'>
					<name>Rosières</name>
					<address>Monument aux Morts<br />07-Rosières (Ardèche)</address>
					<styleUrl>#geocode</styleUrl><Style id='failed07199'><IconStyle><scale>0.8</scale></IconStyle><LabelStyle><scale>0.8</scale></LabelStyle></Style>
					<MultiGeometry><altitudeMode>absolute</altitudeMode>
						<Point><coordinates> 4.255991120786685,44.481380829662335</coordinates></Point>
					</MultiGeometry>
					</Placemark>
					<Placemark id='insee07200'>
					<name>Le Roux</name>
					<address>Monument aux Morts<br />07-Le Roux (Ardèche)</address>
					<styleUrl>#geocode</styleUrl><Style id='failed07200'><IconStyle><scale>0.8</scale></IconStyle><LabelStyle><scale>0.8</scale></LabelStyle></Style>
					<MultiGeometry><altitudeMode>absolute</altitudeMode>
						<Point><coordinates> 4.1468785495986635,44.723525935805604</coordinates></Point>
					</MultiGeometry>
					</Placemark>
					<Placemark id='insee07201'>
					<name>Ruoms</name>
					<address>Monument aux Morts<br />07-Ruoms (Ardèche)</address>
					<styleUrl>#geocode</styleUrl><Style id='failed07201'><IconStyle><scale>0.8</scale></IconStyle><LabelStyle><scale>0.8</scale></LabelStyle></Style>
					<MultiGeometry><altitudeMode>absolute</altitudeMode>
						<Point><coordinates> 4.342251678051684,44.453662089080225</coordinates></Point>
					</MultiGeometry>
					</Placemark>
					<Placemark id='insee07202'>
					<name>Sablières</name>
					<address>Monument aux Morts<br />07-Sablières (Ardèche)</address>
					<styleUrl>#geocode</styleUrl><Style id='failed07202'><IconStyle><scale>0.8</scale></IconStyle><LabelStyle><scale>0.8</scale></LabelStyle></Style>
					<MultiGeometry><altitudeMode>absolute</altitudeMode>
						<Point><coordinates> 4.0742369368672735,44.53207045948799</coordinates></Point>
					</MultiGeometry>
					</Placemark>
					<Placemark id='insee07203'>
					<name>Sagnes-et-Goudoulet</name>
					<address>Monument aux Morts<br />07-Sagnes-et-Goudoulet (Ardèche)</address>
					<styleUrl>#geocode</styleUrl><Style id='failed07203'><IconStyle><scale>0.8</scale></IconStyle><LabelStyle><scale>0.8</scale></LabelStyle></Style>
					<MultiGeometry><altitudeMode>absolute</altitudeMode>
						<Point><coordinates> 4.225959885746685,44.79060206739588</coordinates></Point>
					</MultiGeometry>
					</Placemark>
					<Placemark id='insee07204'>
					<name>Saint-Agrève</name>
					<address>Monument aux Morts<br />07-Saint-Agrève (Ardèche)</address>
					<styleUrl>#geocode</styleUrl><Style id='failed07204'><IconStyle><scale>0.8</scale></IconStyle><LabelStyle><scale>0.8</scale></LabelStyle></Style>
					<MultiGeometry><altitudeMode>absolute</altitudeMode>
						<Point><coordinates> 4.392104359423648,45.01188400929594</coordinates></Point>
					</MultiGeometry>
					</Placemark>
					<Placemark id='insee07205'>
					<name>Saint-Alban-d'Ay</name>
					<address>Monument aux Morts<br />07-Saint-Alban-d'Ay (Ardèche)</address>
					<styleUrl>#geocode</styleUrl><Style id='failed07205'><IconStyle><scale>0.8</scale></IconStyle><LabelStyle><scale>0.8</scale></LabelStyle></Style>
					<MultiGeometry><altitudeMode>absolute</altitudeMode>
						<Point><coordinates> 4.63747994805454,45.187116412817716</coordinates></Point>
					</MultiGeometry>
					</Placemark>
					<Placemark id='insee07207'>
					<name>Saint-Alban-Auriolles</name>
					<address>Monument aux Morts de Saint-Alban-sous-Sampzon<br />07-Saint-Alban-Auriolles (Ardèche)</address>
					<styleUrl>#geocode</styleUrl><Style id='failed07207'><IconStyle><scale>0.8</scale></IconStyle><LabelStyle><scale>0.8</scale></LabelStyle></Style>
					<MultiGeometry><altitudeMode>absolute</altitudeMode>
						<Point><coordinates> 4.299784520412369,44.425889866064544</coordinates></Point>
					</MultiGeometry>
					</Placemark>
					<Placemark id='insee07210'>
					<name>Saint-Andéol-de-Vals</name>
					<address>Monument aux Morts<br />07-Saint-Andéol-de-Vals (Ardèche)</address>
					<styleUrl>#geocode</styleUrl><Style id='failed07210'><IconStyle><scale>0.8</scale></IconStyle><LabelStyle><scale>0.8</scale></LabelStyle></Style>
					<MultiGeometry><altitudeMode>absolute</altitudeMode>
						<Point><coordinates> 4.401531474576401,44.69177674407063</coordinates></Point>
					</MultiGeometry>
					</Placemark>
					<Placemark id='insee07211'>
					<name>Saint-André-de-Cruzières</name>
					<address>Monument aux Morts<br />07-Saint-André-de-Cruzières (Ardèche)</address>
					<styleUrl>#geocode</styleUrl><Style id='failed07211'><IconStyle><scale>0.8</scale></IconStyle><LabelStyle><scale>0.8</scale></LabelStyle></Style>
					<MultiGeometry><altitudeMode>absolute</altitudeMode>
						<Point><coordinates> 4.216070468889046,44.31438330371267</coordinates></Point>
					</MultiGeometry>
					</Placemark>
					<Placemark id='insee07212'>
					<name>Saint-André-en-Vivarais</name>
					<address>Monument aux Morts<br />07-Saint-André-en-Vivarais (Ardèche)</address>
					<styleUrl>#geocode</styleUrl><Style id='failed07212'><IconStyle><scale>0.8</scale></IconStyle><LabelStyle><scale>0.8</scale></LabelStyle></Style>
					<MultiGeometry><altitudeMode>absolute</altitudeMode>
						<Point><coordinates> 4.412492729796014,45.1206534148943</coordinates></Point>
					</MultiGeometry>
					</Placemark>
					<Placemark id='insee07213'>
					<name>Saint-André-Lachamp</name>
					<address>Monument aux Morts<br />07-Saint-André-Lachamp (Ardèche)</address>
					<styleUrl>#geocode</styleUrl><Style id='failed07213'><IconStyle><scale>0.8</scale></IconStyle><LabelStyle><scale>0.8</scale></LabelStyle></Style>
					<MultiGeometry><altitudeMode>absolute</altitudeMode>
						<Point><coordinates> 4.163961124565002,44.50517025466647</coordinates></Point>
					</MultiGeometry>
					</Placemark>
					<Placemark id='insee07216'>
					<name>Saint-Barthélemy-Grozon</name>
					<address>Monument aux Morts<br />07-Saint-Barthélemy-Grozon (Ardèche)</address>
					<styleUrl>#geocode</styleUrl><Style id='failed07216'><IconStyle><scale>0.8</scale></IconStyle><LabelStyle><scale>0.8</scale></LabelStyle></Style>
					<MultiGeometry><altitudeMode>absolute</altitudeMode>
						<Point><coordinates> 4.6317666622487215,44.96378045829944</coordinates></Point>
					</MultiGeometry>
					</Placemark>
					<Placemark id='insee07217'>
					<name>Saint-Barthélemy-le-Plain</name>
					<address>Monument aux Morts<br />07-Saint-Barthélemy-le-Plain (Ardèche)</address>
					<styleUrl>#geocode</styleUrl><Style id='failed07217'><IconStyle><scale>0.8</scale></IconStyle><LabelStyle><scale>0.8</scale></LabelStyle></Style>
					<MultiGeometry><altitudeMode>absolute</altitudeMode>
						<Point><coordinates> 4.747050452747492,45.0549241023231</coordinates></Point>
					</MultiGeometry>
					</Placemark>
					<Placemark id='insee07218'>
					<name>Saint-Basile</name>
					<address>Monument aux Morts<br />07-Saint-Basile (Ardèche)</address>
					<styleUrl>#geocode</styleUrl><Style id='failed07218'><IconStyle><scale>0.8</scale></IconStyle><LabelStyle><scale>0.8</scale></LabelStyle></Style>
					<MultiGeometry><altitudeMode>absolute</altitudeMode>
						<Point><coordinates> 4.572789657932062,44.95483472591138</coordinates></Point>
					</MultiGeometry>
					</Placemark>
					<Placemark id='insee07219'>
					<name>Saint-Bauzile</name>
					<address>Monument aux Morts<br />07-Saint-Bauzile (Ardèche)</address>
					<styleUrl>#geocode</styleUrl><Style id='failed07219'><IconStyle><scale>0.8</scale></IconStyle><LabelStyle><scale>0.8</scale></LabelStyle></Style>
					<MultiGeometry><altitudeMode>absolute</altitudeMode>
						<Point><coordinates> 4.673933669878242,44.676041075577274</coordinates></Point>
					</MultiGeometry>
					</Placemark>
					<Placemark id='insee07220'>
					<name>Saint-Christol</name>
					<address>Monument aux Morts<br />07-Saint-Christol (Ardèche)</address>
					<styleUrl>#geocode</styleUrl><Style id='failed07220'><IconStyle><scale>0.8</scale></IconStyle><LabelStyle><scale>0.8</scale></LabelStyle></Style>
					<MultiGeometry><altitudeMode>absolute</altitudeMode>
						<Point><coordinates> 4.441841512046574,44.86678932169583</coordinates></Point>
					</MultiGeometry>
					</Placemark>
					<Placemark id='insee07223'>
					<name>Saint-Cirgues-de-Prades</name>
					<address>Monument aux Morts<br />07-Saint-Cirgues-de-Prades (Ardèche)</address>
					<styleUrl>#geocode</styleUrl><Style id='failed07223'><IconStyle><scale>0.8</scale></IconStyle><LabelStyle><scale>0.8</scale></LabelStyle></Style>
					<MultiGeometry><altitudeMode>absolute</altitudeMode>
						<Point><coordinates> 4.271042802961079,44.62372311180895</coordinates></Point>
					</MultiGeometry>
					</Placemark>
					<Placemark id='insee07224'>
					<name>Saint-Cirgues-en-Montagne</name>
					<address>Monument aux Morts<br />07-Saint-Cirgues-en-Montagne (Ardèche)</address>
					<styleUrl>#geocode</styleUrl><Style id='failed07224'><IconStyle><scale>0.8</scale></IconStyle><LabelStyle><scale>0.8</scale></LabelStyle></Style>
					<MultiGeometry><altitudeMode>absolute</altitudeMode>
						<Point><coordinates> 4.0924891180357825,44.75564366676379</coordinates></Point>
					</MultiGeometry>
					</Placemark>
					<Placemark id='insee07225'>
					<name>Saint-Clair</name>
					<address>Monument aux Morts<br />07-Saint-Clair (Ardèche)</address>
					<styleUrl>#geocode</styleUrl><Style id='failed07225'><IconStyle><scale>0.8</scale></IconStyle><LabelStyle><scale>0.8</scale></LabelStyle></Style>
					<MultiGeometry><altitudeMode>absolute</altitudeMode>
						<Point><coordinates> 4.679442504667748,45.27848141766218</coordinates></Point>
					</MultiGeometry>
					</Placemark>
					<Placemark id='insee07227'>
					<name>Saint-Cyr</name>
					<address>Monument aux Morts<br />07-Saint-Cyr (Ardèche)</address>
					<styleUrl>#geocode</styleUrl><Style id='failed07227'><IconStyle><scale>0.8</scale></IconStyle><LabelStyle><scale>0.8</scale></LabelStyle></Style>
					<MultiGeometry><altitudeMode>absolute</altitudeMode>
						<Point><coordinates> 4.730664845977047,45.251992988805824</coordinates></Point>
					</MultiGeometry>
					</Placemark>